stop_id,stop_code,stop_name,stop_desc,platform_code,platform_name,stop_lat,stop_lon,zone_id,stop_address,stop_url,level_id,location_type,parent_station,wheelchair_boarding,municipality,on_street,at_street,vehicle_type,station_id_additional
17091,17091.0,Terminal A,Terminal A - Silver Line - SL1 South Station,,South Station,42.364612,-71.020862,SL1-Logan,"Terminal A Arrivals, Door A104, Boston Logan International Airport, Boston, MA 02128",https://www.mbta.com/stops/17091,level_logan_arrivals,0,,1,Boston,Logan Airport Terminal A,Logan Airport Terminal B,3.0,[]
17093,17093.0,Terminal B Stop 2 - Arrivals Level,Terminal B Stop 2 - Silver Line - SL1 South Station,,South Station,42.362099,-71.017983,SL1-Logan,"Terminal B Arrivals, Door B110, Boston Logan International Airport, Boston, MA 02128",https://www.mbta.com/stops/17093,level_logan_arrivals,0,,1,Boston,Logan Airport Terminal B,,3.0,[]
17094,17094.0,Terminal C - Arrivals Level,Terminal C - Silver Line - SL1 South Station,,South Station,42.366494,-71.017289,SL1-Logan,"Terminal C Arrivals, Door C106, Boston Logan International Airport, Boston, MA 02128",https://www.mbta.com/stops/17094,level_logan_arrivals,0,,1,Boston,Logan Airport Terminal C,Logan Airport Terminal B,3.0,[]
17095,17095.0,Terminal E - Arrivals Level,Terminal E - Silver Line - SL1 South Station,,South Station,42.369344,-71.020238,SL1-Logan,"Terminal E Arrivals, Door E106, Boston Logan International Airport, Boston, MA 02128",https://www.mbta.com/stops/17095,level_logan_arrivals,0,,1,Boston,Logan Airport Terminal E,,3.0,[]
17096,17096.0,Congress St @ World Trade Center Sta,Congress St @ World Trade Center Sta - Silver Line - South Station,,South Station,42.348769,-71.042336,SLWaterfrontNonLogan,,https://www.mbta.com/stops/17096,level_in_street,0,,1,Boston,Congress Street,Seaport Lane,3.0,[]
27092,27092.0,Terminal B Stop 1 - Arrivals Level,Terminal B Stop 1 - Silver Line - SL1 South Station,,South Station,42.3621,-71.01882,SL1-Logan,"Terminal B Arrivals, Door B103, Boston Logan International Airport, Boston, MA 02128",https://www.mbta.com/stops/27092,level_logan_arrivals,0,,1,Boston,Logan Airport Terminal B,,3.0,[]
30088,,Savin Hill - Dorchester Ave @ Bay St,Savin Hill - Red Line Alewife Shuttle - Dorchester Ave @ Bay St,,Alewife Shuttle,42.31126,-71.05753,,,,,0,,1,Boston,Dorchester Avenue,Bay Street,3.0,[]
34500,,Dorchester Ave @ Lincoln St - Fields Corner Sta,Fields Corner - Red Line Alewife Shuttle - Dorchester Ave @ Lincoln St,,Alewife Shuttle,42.299623,-71.060251,,,,,0,,1,Boston,Dorchester Avenue,Faulkner Street,3.0,[]
34503,,Dorchester Ave @ Fields Corner Station,Fields Corner - Red Line Ashmont Shuttle - Dorchester Ave @ Fields Corner Station,,Ashmont Shuttle,42.300316,-71.060253,,,,,0,,1,Boston,Dorchester Avenue,,3.0,[]
71263,,Adams St @ Milton St - Cedar Grove Sta,Cedar Grove - Mattapan Line Mattapan Shuttle - Adams St @ Milton St,,Mattapan Shuttle,42.279763,-71.059163,,,,,0,,1,Boston,Adams Street,Milton St,3.0,"""['71264']"""
71265,,Adams St @ Butler St - Butler Sta,Butler - Mattapan Line Mattapan Shuttle - Adams St @ Butler St,,Mattapan Shuttle,42.273318,-71.064038,,,,,0,,1,Boston,Adams Street,Butler Street,3.0,"""['71266']"""
71269,,Eliot St @ Central Ave - Central Ave Sta,Central Ave - Mattapan Line Shuttle - Eliot St @ Central Ave,,Ashmont Shuttle,42.269457,-71.073334,,,,,0,,1,Milton,Eliot Street,Central Avenue,3.0,"""['71270']"""
71271,,Eliot St @ Valley Rd Sta,Valley Road - Mattapan Line Capen Street Van Shuttle - Eliot St @ Valley Rd Sta,,Capen St Van Shuttle,42.267976,-71.080965,,,,,0,,1,Milton,Eliot Street,,3.0,[]
71272,,Eliot St opp Valley Rd Sta,Valley Road - Mattapan Line Central Avenue Van Shuttle - Eliot St opp Valley Rd Sta,,Central Ave Van Shuttle,42.267781,-71.081139,,,,,0,,1,Milton,Eliot Street,,3.0,[]
71273,,Eliot St opp Capen Street,Capen Street - Mattapan Line Ashmont Shuttle - Eliot St opp Capen St,,Ashmont Shuttle,42.265983,-71.085531,,,,,0,,1,Milton,Eliot Street,Capen Street,3.0,[]
71274,,Eliot St @ Capen Street - Capen St Sta,Capen Street - Mattapan Line Shuttle - Eliot St @ Capen St,,Mattapan Shuttle,42.266153,-71.085375,,,,,0,,1,Milton,Eliot Street,Capen Street,3.0,[]
9070002,,Green Street - Amory St @ Green St,Green Street - Orange Line Forest Hills Shuttle - Amory St @ Green St,,Forest Hills Shuttle,42.310334,-71.107185,,,,,0,,1,Boston,Amory Street,Green Street,3.0,"""['9070003']"""
9070004,,Stony Brook - Amory St @ Boylston St,Stony Brook - Orange Line Forest Hills Shuttle - Amory St @ Boylston St,,Forest Hills Shuttle,42.317028,-71.10275,,,,,0,,1,Boston,Amory Street,Boylston Street,3.0,[]
9070005,,Stony Brook - Boylston St @ Stony Brook,Stony Brook - Orange Line Oak Grove Shuttle - Boylston St @ Stony Brook,,Oak Grove Shuttle,42.317082,-71.104428,,,,,0,,1,Boston,Boylston Street,Lamartine Street,3.0,[]
9070007,,Jackson Square - Centre St opp Jackson Square Busway,Jackson Square - Orange Line Oak Grove Shuttle - Centre St opp Jackson Square Busway,,Oak Grove Shuttle,42.322675,-71.099969,,,,,0,,1,Boston,Centre Street,Lamartine Street,3.0,[]
9070010,,Ruggles - Tremont St @ Ruggles St,Ruggles - Orange Line Forest Hills Shuttle - Tremont St @ Ruggles St,,Forest Hills Shuttle,42.335346,-71.088016,,,,,0,,1,Boston,Tremont Street,Ruggles Street,3.0,[]
9070012,,Massachusetts Avenue - Columbus Ave @ Northampton St,Massachusetts Avenue - Orange Line Forest Hills Shuttle - Columbus Ave @ Northampton St,,Forest Hills Shuttle,42.340219,-71.082397,,,,,0,,1,Boston,Columbus Avenue,Northampton Street,3.0,[]
9070013,,Massachusetts Avenue - Columbus Ave @ Massachusetts Ave,Massachusetts Avenue - Orange Line Oak Grove Shuttle - Columbus Ave @ Massachusetts Ave,,Oak Grove Shuttle,42.34026,-71.081959,,,,,0,,1,Boston,Columbus Avenue,Massachusetts Avenue,3.0,[]
9070022,,State,State - Orange Line Shuttle - Congress St @ State St,,Orange Line Shuttle,42.359131,-71.056756,,,,,0,,1,Boston,Congress Street,State Street,3.0,"""['place-state', '70022', '70023', '70041', '70042', 'node-374-lobby', 'node-374-nbplatform', 'node-501-nbplatform', 'node-501-sbplatform', 'node-502-landing', 'node-502-sbplatform', 'node-523-sbplatform', 'node-523-street', 'node-6-landing', 'node-6-nbplatform', 'node-802-nbplatform', 'node-802-sbplatform', 'node-803-sbplatform', 'node-803-street', 'node-967-nbplatform', 'node-967-sbplatform', 'node-974-street', 'node-974-wbplatform', 'node-975-ebplatform', 'node-ogcityhallstairs-lobby', 'node-ogcityhallstairs-nbplatform', 'node-state-bowdoinoldstatestairs-landing', 'node-state-bowdoinoldstatestairs-wbplatform', 'node-state-bowdoinramp-nbplatform', 'node-state-bowdoinramp-wbplatform', 'node-state-cityhall-farepaid', 'node-state-cityhall-fareunpaid', 'node-state-congress-farepaid', 'node-state-congress-fareunpaid', 'node-state-congressstairs-street', 'node-state-congressstairs-wbplatform', 'node-state-exchange-farepaid', 'node-state-exchange-fareunpaid', 'node-state-exchangestairs-ebplatform', 'node-state-milk-farepaid', 'node-state-milk-fareunpaid', 'node-state-milkmidstairs-landing', 'node-state-milkmidstairs-street', 'node-state-milkststairs-lobby', 'node-state-ogoldstatehousestairs-landing', 'node-state-ogoldstatehousestairs-nbplatform', 'node-state-oldstate-farepaid', 'node-state-oldstate-fareunpaid', 'node-state-oldstateogministairs-landing', 'node-state-oldstateogministairs-street', 'node-state-oldstatepassageministairs-landing', 'node-state-oldstatepassageministairs-street', 'node-state-olnbplatformstairsmain-nbplatform', 'node-state-olnbplatformstairsmain-sbplatform', 'node-state-olnbplatformstairssec-nbplatform', 'node-state-olnbplatformstairssec-sbplatform', 'node-state-olpassagestairs-nbplatform', 'node-state-olpassagestairs-sbplatform', 'node-state-passageoldstatehousestairs-landing', 'node-state-passageoldstatehousestairs-sbplatform', 'node-state-statestreetstairs-lobby', 'node-state-water-farepaid', 'node-state-water-fareunpaid', 'node-state-waterststairs-lobby', 'node-state-wonderlandoldstatestairs-ebplatform', 'node-state-wonderlandoldstatestairs-landing']"""
9070024,,Haymarket - Congress St opp Hanover St,Haymarket - Orange Line Forest Hills Shuttle - Congress St opp Hanover St,,Forest Hills Shuttle,42.361133,-71.057643,,,,,0,,1,Boston,Congress Street,Hanover Street,3.0,[]
9070026,,North Station,North Station - Orange Line Shuttle - Haverhill St @ Causeway St,,Orange Line Shuttle,42.365608,-71.060426,,,,,0,,1,Boston,Haverhill Street,Causeway Street,3.0,"""['9070027', 'place-north', '70026', '70027', '70205', '70206', 'BNT-0000', 'BNT-0000-01', 'BNT-0000-02', 'BNT-0000-03', 'BNT-0000-04', 'BNT-0000-05', 'BNT-0000-06', 'BNT-0000-07', 'BNT-0000-08', 'BNT-0000-09', 'BNT-0000-10', 'node-302-bottom', 'node-302-top', 'node-303-bottom', 'node-303-top', 'node-304-bottom', 'node-304-top', 'node-384-bottom', 'node-384-top', 'node-385-bottom', 'node-385-top', 'node-391-bottom', 'node-391-top', 'node-392-bottom', 'node-392-top', 'node-393-bottom', 'node-393-top', 'node-447-bottom', 'node-447-top', 'node-731-bottom', 'node-731-top', 'node-732-bottom', 'node-732-top', 'node-909-bottom', 'node-909-top', 'node-910-bottom', 'node-910-top', 'node-911-bottom', 'node-911-top', 'node-912-bottom', 'node-912-top', 'node-north-causeway-farepaid', 'node-north-causeway-fareunpaid', 'node-north-causeway-lobby', 'node-north-causewayexite-farepaid', 'node-north-causewayexite-fareunpaid', 'node-north-causewayexitw-farepaid', 'node-north-causewayexitw-fareunpaid', 'node-north-causewayoakgrove-stairs-bottom', 'node-north-causewayoakgrove-stairs-top', 'node-north-causewaystairs-bottom', 'node-north-causewaystairs-top', 'node-north-centerstairs-bottom', 'node-north-centerstairs-top', 'node-north-cr-lobby', 'node-north-crgates-main-farepaid', 'node-north-crgates-main-fareunpaid', 'node-north-crgates-west-farepaid', 'node-north-crgates-west-fareunpaid', 'node-north-eastramp-bottom', 'node-north-eastramp-top', 'node-north-eaststairs-bottom', 'node-north-eaststairs-top', 'node-north-ecausewayexitstairs-bottom', 'node-north-ecausewayexitstairs-top', 'node-north-evalentiexitstairs-bottom', 'node-north-evalentiexitstairs-top', 'node-north-northstairs-bottom', 'node-north-northstairs-top', 'node-north-passageway-cr', 'node-north-passageway-subway', 'node-north-passagewaystairs-bottom', 'node-north-passagewaystairs-top', 'node-north-southstairs-bottom', 'node-north-southstairs-top', 'node-north-valenti-farepaid', 'node-north-valenti-fareunpaid', 'node-north-valenti-lobby', 'node-north-valenti-streetstairs-bottom', 'node-north-valenti-streetstairs-top', 'node-north-valentiexite-farepaid', 'node-north-valentiexite-fareunpaid', 'node-north-valentiexitw-farepaid', 'node-north-valentiexitw-fareunpaid', 'node-north-valentioakgrove-stairs-bottom', 'node-north-valentioakgrove-stairs-top', 'node-north-wcausewayexitstairs-bottom', 'node-north-wcausewayexitstairs-top', 'node-north-wvalentiexitstairs-bottom', 'node-north-wvalentiexitstairs-top']"""
9070028,,Community College - Rutherford Ave @ Austin St,Community College - Orange Line Forest Hills Shuttle - Rutherford Ave @ Austin St,,Forest Hills Shuttle,42.374668,-71.06832,,,,,0,,1,Boston,Rutherford Avenue,Austin Street,3.0,"""['9070029']"""
9070039,,Government Center - Cambridge St @ Sudbury St,Government Center - Shuttle - Cambridge St @ Sudbury St,,Shuttle,42.360756,-71.06064,,,,,0,,1,Boston,Cambridge Street,Sudbury Street,3.0,[]
9070043,,Aquarium - Surface Rd @ State St,Aquarium - Blue Line Shuttle - Surface Rd @ State St,,Blue Line Shuttle,42.359756,-71.052605,,,,,0,,1,Boston,Surface Road,State Street,3.0,[]
9070045,,Maverick,Maverick - Blue Line Government Center Shuttle,,Government Center Shuttle,42.369579,-71.039179,,,,,0,,1,Boston,Maverick Square,Winthrop Street,3.0,"""['9070046', 'place-mvbcl', '70045', '70046', 'node-428-entrance', 'node-428-lobby', 'node-429-entrance', 'node-429-lobby', 'node-433-entrance', 'node-433-lobby', 'node-434-entrance', 'node-434-lobby', 'node-965-entrance', 'node-965-lobby', 'node-966-entrance', 'node-966-lobby', 'node-mvbcl-lewfarepaid', 'node-mvbcl-lewfareunpaid', 'node-mvbcl-lewstair-entrance', 'node-mvbcl-lewstair-lobby', 'node-mvbcl-msqfarepaid', 'node-mvbcl-msqfareunpaid', 'node-mvbcl-msqstair-entrance', 'node-mvbcl-msqstair-lobby']"""
9070053,,Suffolk Downs - Bennington St opp Leverett Ave,Suffolk Downs - Blue Line Southbound Shuttle - Bennington St opp Leverett Ave,,Southbound Shuttle,42.390264,-70.996908,,,,,0,,1,Boston,Bennington Street,Leverett Avenue,3.0,[]
9070054,,Suffolk Downs - Bennington St @ Leverett Ave,Suffolk Downs - Blue Line Wonderland Shuttle - Bennington St @ Leverett Ave,,Wonderland Shuttle,42.390137,-70.99681,,,,,0,,1,Boston,Bennington Street,Leverett Avenue,3.0,[]
9070055,,Beachmont - State Rd @ Winthrop Ave,Beachmont - Blue Line Southbound Shuttle - State Rd @ Winthrop Ave,,Southbound Shuttle,42.397706,-70.992052,,,,,0,,1,Revere,State Road,Winthrop Avenue,3.0,[]
9070056,,Beachmont - Bennington St @ Winthrop Ave,Beachmont - Blue Line Wonderland Shuttle - Bennington St @ Winthrop Ave,,Wonderland Shuttle,42.397243,-70.991903,,,,,0,,1,Revere,Bennington Street,Winthrop Avenue,3.0,[]
9070057,,Revere Beach - Beach St opp Kimball Ave,Revere Beach - Blue Line Southbound Shuttle - Beach St opp Kimball Ave,,Southbound Shuttle,42.408469,-70.992724,,,,,0,,1,Revere,Beach Street,Kimball Avenue,3.0,[]
9070058,,Revere Beach - Beach St @ Kimball Ave,Revere Beach - Blue Line Wonderland Shuttle - Beach St @ Kimball Ave,,Wonderland Shuttle,42.40858,-70.992596,,,,,0,,1,Revere,Beach Street,Kimball Avenue,3.0,[]
9070065,,Porter - Massachusetts Avenue @ Mount Vernon St,Porter - Red Line Ashmont/Braintree Shuttle - Massachusetts Avenue @ Mount Vernon St,,Ashmont/Braintree Shuttle,42.38758,-71.11934,,,,,0,,1,Cambridge,Massachusetts Avenue,Mount Vernon Street,3.0,[]
9070068,,Harvard - Massachusetts Ave opp Linden St,Central - Red Line Alewife Shuttle - Massachusetts Ave opp Linden St,,Alewife Shuttle,42.37289,-71.11677,,,,,0,,1,Cambridge,Massachusetts Avenue,Linden Street,3.0,[]
9070070,,Central - Massachusetts Ave opp Pearl St,Central - Red Line Alewife Shuttle - Massachusetts Ave opp Pearl St,,Alewife Shuttle,42.36472,-71.10237,,,,,0,,1,Cambridge,Massachusetts Avenue,Pearl Street,3.0,[]
9070071,,Kendall/MIT - Main St opp Dock St,Kendall/MIT - Red Line Shuttle - Main St opp Dock St,,Red Line Shuttle,42.362584,-71.087137,,,,,0,,1,Cambridge,Main Street,Dock Street,3.0,[]
9070072,,Harvard - Brattle St @ Palmer St,Harvard - Red Line Shuttle - Brattle St @ Palmer St,,Red Line Shuttle,42.373396,-71.1202,,,,,0,,1,Cambridge,Brattle Street,Palmer Street,3.0,[]
9070073,,Charles/MGH - Cambridge St @ Lindall Pl,Charles/MGH - Red Line Ashmont/Braintree Shuttle - Cambridge St @ Lindall Pl,,Ashmont/Braintree Shuttle,42.361018,-71.069163,,,,,0,,1,Boston,Cambridge Street,Lindall Place,3.0,[]
9070074,,Charles/MGH - 325 Cambridge St,Charles/MGH - Red Line Alewife Shuttle - 325 Cambridge St,,Alewife Shuttle,42.361245,-71.069722,,,,,0,,1,Boston,Cambridge Street,,3.0,[]
9070076,,Park Street - Tremont St @ Winter St,Park Street - Red Line Shuttle - Tremont St @ Winter St,,Red Line Shuttle,42.356164,-71.062487,,,,,0,,1,Boston,Tremont Street,Winter Street,3.0,[]
9070079,,South Station - Summer St @ Surface Rd,South Station - Red Line Ashmont/Braintree Shuttle - Summer St @ Surface Rd,,Ashmont/Braintree Shuttle,42.353003,-71.05661,,,,,0,,1,Boston,Summer Street,John F. Fitzgerald Surface Road,3.0,[]
9070080,,Downtown Crossing - Franklin St @ Washington St,Downtown Crossing - Red Line Shuttle - Franklin St @ Washington St,,Red Line Shuttle,42.35627,-71.05933,,,,,0,,1,Boston,Franklin Street,Washington Street,3.0,[]
9070083,,Andrew - Dorchester Ave @ Dexter St,Andrew - Red Line Ashmont/Braintree Shuttle - Dorchester Ave @ Dexter St,,Ashmont/Braintree Shuttle,42.330445,-71.057042,,,,,0,,1,Boston,Dorchester Avenue,Dexter Street,3.0,[]
9070101,,Quincy Center - 1259 Hancock St,Quincy Center - Red Line Braintree Suttle - 1259 Hancock St,,Braintree Shuttle,42.251786,-71.003876,,,,,0,,1,Quincy,Hancock Street,,3.0,[]
9070107,,Boston College - Commonwealth Ave @ Lake St,Boston College - Green Line Shuttle - Commonwealth Ave @ Lake St,,Green Line Shuttle,42.33981,-71.16641,,,,,0,,1,Boston,Commonwealth Avenue,Lake Street,3.0,[]
9070110,,South Street - Commonwealth Ave opp South St,South Street - Green Line Park Street & North Shuttle - Commonwealth Ave opp South St,,Park Street & North Shuttle,42.339477,-71.157805,,,,,0,,1,Boston,Commonwealth Avenue,South Street,3.0,[]
9070111,,South Street - Commonwealth Ave @ South St,South Street - Green Line Boston College Shuttle,,Boston College Shuttle - Commonwealth Ave opp South St,42.339669,-71.157486,,,,,0,,1,Boston,Commonwealth Avenue,South Street,3.0,[]
9070112,,Chestnut Hill Avenue - Commonwealth Ave @ Chestnut Hill Ave,Chestnut Hill Avenue - Green Line Park Street & North Shuttle,,Park Street & North Shuttle,42.33802,-71.15411,,,,,0,,1,Boston,Commonwealth Avenue,Chestnut Hill Avenue,3.0,"""['9070113']"""
9070114,,Chiswick Road - Commonwealth Ave @ Chiswick Rd,Chiswick Road - Green Line Park Street & North Shuttle - Commonwealth Ave @ Chiswick Rd,,Park Street & North Shuttle,42.340378,-71.150962,,,,,0,,1,Boston,Commonwealth Avenue,Chiswick Road,3.0,"""['9070115']"""
9070116,,Sutherland Road - Commonwealth Ave @ Colborne Rd,Sutherland Road - Green Line Park Street & North Shuttle - Commonwealth Ave @ Colborne Rd,,Park Street & North Shuttle,42.341459,-71.145883,,,,,0,,1,Boston,Commonwealth Avenue,Colborne Road,3.0,"""['9070117']"""
9070120,,Washington Street - Commonwealth Ave @ Washington St,Washington Street - Green Line Park Street & North Shuttle - Commonwealth Ave @ Washington St,,Park Street & North Shuttle,42.34385,-71.142476,,,,,0,,1,Boston,Commonwealth Avenue,Washington Street,3.0,"""['9070121', '9170120']"""
9070124,,Warren Street - Commonwealth Ave @ Kelton St,Warren Street - Green Line Park Street & North Shuttle - Commonwealth Ave @ Kelton St,,Park Street & North Shuttle,42.34855,-71.13965,,,,,0,,1,Boston,Commonwealth Avenue,Warren Street,3.0,[]
9070125,,Warren Street - Commonwealth Ave @ Warren St,Warren Street - Green Line Boston College Shuttle - Commonwealth Ave @ Warren St,,Boston College Shuttle,42.34862,-71.14056,,,,,0,,1,Boston,Commonwealth Avenue,Warren Street,3.0,[]
9070128,,Griggs Street - Commonwealth Ave @ Griggs St,Griggs Street - Green Line Park Street & North Shuttle - Commonwealth Ave @ Griggs St,,Park Street & North Shuttle,42.348656,-71.134255,,,,,0,,1,Boston,Commonwealth Avenue,Griggs Street,3.0,[]
9070129,,Griggs Street - Commonwealth Ave opp Griggs St,Griggs Street - Green Line Boston College Shuttle - Commonwealth Ave opp Griggs St,,Boston College Shuttle,42.348901,-71.134118,,,,,0,,1,Boston,Commonwealth Avenue,Griggs Street,3.0,[]
9070130,,Harvard Avenue - Commonwealth Ave @ Harvard Ave,Harvard Avenue - Green Line Park Street & North Shuttle - Commonwealth Ave @ Harvard Ave,,Park Street & North Shuttle,42.350157,-71.131085,,,,,0,,1,Boston,Commonwealth Avenue,Harvard Avenue,3.0,"""['9070131']"""
9070134,,Packard's Corner,Packard's Corner - Green Line Park Street & North Shuttle,,Park Street & North Shuttle,42.351948,-71.123965,,,,,0,,1,Boston,,,3.0,"""['9070135', 'place-brico', '70134', '70135']"""
9070150,,Kenmore - 512 Commonwealth Ave,Kenmore - Green Line Shuttle - 512 Commonwealth Ave,,Green Line Shuttle,42.348712,-71.095526,,,,,0,,1,Boston,Commonwealth Avenue,Kenmore Street,3.0,[]
9070151,,Kenmore - 660 Beacon St,Kenmore - Green Line Westbound Shuttle - 660 Beacon St,,Westbound Shuttle,42.349196,-71.095826,,,,,0,,1,Boston,Beacon Street,Public Alley 902,3.0,[]
9070152,,Hynes Convention Center - Cambria St @ Boylston St,Hynes Convention Center - Green Line Park Street & North Shuttle - Cambria St @ Boylston St,,Park Street & North Shuttle,42.3473,-71.086917,,,,,0,,1,Boston,Cambria Street,Boylston Street,3.0,[]
9070154,,Copley - Opp 575 Boylston St,Copley - Green Line Shuttle - Opp 575 Boylston St,,Green Line Shuttle,42.350283,-71.076293,,,,,0,,1,Boston,Boylston Street,,3.0,[]
9070155,,Copley - Saint James Ave @ Trinity Pl,Copley - Green Line Westbound Shuttle - Saint James Ave @ Trinity Pl,,Westbound Shuttle,42.34966,-71.07578,,,,,0,,1,Boston,Saint James Avenue,Trinity Place,3.0,[]
9070156,,Arlington,Arlington - Green Line Park St & North Shuttle,,Park Street & North Shuttle,42.351765,-71.070881,,,,,0,,1,Boston,,,3.0,"""['place-armnl', '70156', '70157', 'node-435-lobby', 'node-435-platform', 'node-436-lobby', 'node-436-platform', 'node-962-lobby', 'node-962-platform', 'node-963-lobby', 'node-963-platform', 'node-964-lobby', 'node-armnl-ebstairs-lobby', 'node-armnl-ebstairs-platform', 'node-armnl-eescstairs-escalator', 'node-armnl-eescstairs-lobby', 'node-armnl-farepaid', 'node-armnl-fareunpaid', 'node-armnl-nstairs-lobby', 'node-armnl-nwstairs-lobby', 'node-armnl-sestairs-lobby', 'node-armnl-swstairs-lobby', 'node-armnl-wbstairs-lobby', 'node-armnl-wbstairs-platform', 'node-armnl-wescstairs-escalator', 'node-armnl-wescstairs-lobby']"""
9070160,,Riverside,Riverside - Green Line Shuttle,,Green Line Shuttle,42.33721,-71.252673,,,,,0,,1,Newton,,,3.0,"""['place-river', '70160', '70161', 'node-river-estairs-lobby', 'node-river-farepaid', 'node-river-fareunpaid', 'node-river-ramp-lobby', 'node-river-wstairs-lobby']"""
9070162,,Woodland,Woodland - Green Line Shuttle,,Green Line Shuttle,42.332975,-71.243312,,,,,0,,1,Newton,,,3.0,"""['place-woodl', '70162', '70163']"""
9070164,,Waban - Beacon St @ Waban,Waban - Green Line Park St & North Shuttle - Beacon St @ Waban,,Park Street & North Shuttle,42.326268,-71.231039,,,,,0,,1,Newton,Beacon Street,Collins Road,3.0,[]
9070165,,Waban - Beacon St opp Waban,Waban - Green Line Riverside Shuttle - Beacon St opp Waban,,Riverside Shuttle,42.326372,-71.231098,,,,,0,,1,Newton,Beacon Street,Collins Road,3.0,[]
9070169,,Newton Highlands - Walnut St,Newton Highlands - Green Line Shuttle - Walnut St,,Green Line Shuttle,42.32176,-71.20616,,,,,0,,1,Newton,Walnut Street,,3.0,[]
9070170,,Newton Centre - Langley Rd @ Braeland Ave,Newton Centre - Green Line Park St & North Shuttle - Langley Rd @ Braeland Ave,,Park Street & North Shuttle,42.329898,-71.191152,,,,,0,,1,Newton,Langley Road,Braeland Avenue,3.0,[]
9070171,,Newton Centre - Langley Rd opp Braeland Ave,Newton Centre - Green Line Riverside Shuttle - Langley Rd opp Braeland Ave,,Riverside Shuttle,42.329976,-71.190997,,,,,0,,1,Newton,Langley Road,Braeland Avenue,3.0,[]
9070178,,Brookline Hills - Boylston St @ Cypress St,Brookline Hills - Green Line Riverside Shuttle - Boylston St @ Cypress St,,Riverside Shuttle,42.330044,-71.126602,,,,,0,,1,Brookline,Boylston Street,Cypress Street,3.0,"""['9070179']"""
9070180,,Brookline Village - Pearl St @ Brookline Place Parking,Brookline Village - Green Line Park St & North Shuttle - Pearl St @ Brookline Place Parking,,Park Street & North Shuttle,42.332733,-71.115961,,,,,0,,1,Brookline,Pearl Street,,3.0,[]
9070184,,Hynes Convention Center - Commonwealth Ave @ Massachusetts Ave,Hynes Convention Center - Green Line Shuttle,,Green Line Shuttle,42.34932,-71.08859,,,,,0,,1,Boston,Commonwealth Avenue,Massachusetts Avenue,3.0,[]
9070185,,Kenmore - Commonwealth Ave @ Kenmore St,Kenmore - Green Line Shuttle,,Green Line Shuttle,42.34916,-71.0949,,,,,0,,1,Boston,Commonwealth Avenue,Kenmore Street,3.0,"""['9170151']"""
9070186,,Boston University East - 610 Commonwealth Ave,Boston University East - 610 Commonwealth Ave - Green Line Park Street & North Shuttle,,Green Line Park Street & North Shuttle,42.3493,-71.10212,,,,,0,,1,Boston,Commonwealth Avenue,,3.0,[]
9070211,,Saint Mary's Street,Saint Mary's Street - Green Line Westbound Shuttle,,Westbound Shuttle,42.346095,-71.107571,,,,,0,,1,Brookline,,,3.0,"""['place-smary', '70211', '70212']"""
9070212,,Saint Mary's Street - Beacon St @ Saint Mary's St,Saint Mary's Street - Green Line Park Street & North Shuttle - Beacon St @ Saint Mary's St,,Park Street & North Shuttle,42.345892,-71.107009,,,,,0,,1,Brookline,Beacon Street,Saint Mary's Street,3.0,[]
9070213,,Hawes Street,Hawes Street - Green Line Cleveland Circle Shuttle,,Cleveland Circle Shuttle,42.345234,-71.110831,,,,,0,,1,Brookline,,,3.0,"""['place-hwsst', '70213', '70214']"""
9070214,,Hawes Street - 1089 Beacon St,Hawes Street - Green Line Park Street & North Shuttle - 1089 Beacon St,,Park Street & North Shuttle,42.3449,-71.11065,,,,,0,,1,Brookline,Beacon Street,Hawes Street,3.0,[]
9070215,,Kent Street,Kent Street - Green Line Cleveland Circle Shuttle,,Cleveland Circle Shuttle,42.344407,-71.11386,,,,,0,,1,Brookline,,,3.0,"""['9070216', 'place-kntst', '70215', '70216']"""
9070217,,Saint Paul Street,Saint Paul Street - Green Line Cleveland Circle Shuttle,,Cleveland Circle Shuttle,42.343636,-71.116713,,,,,0,,1,Brookline,,,3.0,"""['place-stpul', '70217', '70218']"""
9070218,,Saint Paul Street - 1253 Beacon St,Saint Paul Street - Green Line Park Street & North Shuttle - 1253 Beacon St,,Park Street & North Shuttle,42.34282,-71.11804,,,,,0,,1,Brookline,Beacon Street,Saint Paul Street,3.0,[]
9070219,,Coolidge Corner,Coolidge Corner - Green Line Cleveland Circle Shuttle,,Cleveland Circle Shuttle,42.342387,-71.121007,,,,,0,,1,Brookline,,,3.0,"""['9070220', 'place-cool', '70219', '70220']"""
9070223,,Summit Avenue - 1428 Beacon St,Summit Avenue - Green Line Cleveland Circle Shuttle - 1428 Beacon St,,Cleveland Circle Shuttle,42.34105,-71.12621,,,,,0,,1,Brookline,Beacon Street,Summit Avenue,3.0,[]
9070224,,Summit Avenue,Summit Avenue - Green Line Park Street & North Shuttle,,Park Street & North Shuttle,42.340768,-71.125834,,,,,0,,1,Brookline,,,3.0,"""['place-sumav', '70223', '70224']"""
9070225,,Brandon Hall,Brandon Hall - Green Line Cleveland Circle Shuttle,,Cleveland Circle Shuttle,42.340312,-71.128629,,,,,0,,1,Brookline,,,3.0,"""['9070226', 'place-bndhl', '70225', '70226']"""
9070227,,Fairbanks Street,Fairbanks Street - Green Line Cleveland Circle Shuttle,,Cleveland Circle Shuttle,42.339857,-71.1317,,,,,0,,1,Brookline,,,3.0,"""['9070228', 'place-fbkst', '70227', '70228']"""
9070229,,Washington Square,Washington Square - Green Line Cleveland Circle Shuttle,,Cleveland Circle Shuttle,42.339687,-71.135035,,,,,0,,1,Brookline,,,3.0,"""['place-bcnwa', '70229', '70230']"""
9070230,,Washington Square - 1601 Beacon St,Washington Square - Green Line Park Street & North Shuttle - 1601 Beacon St,,Park Street & North Shuttle,42.33937,-71.13409,,,,,0,,1,Brookline,Beacon Street,Westbourne Terrace,3.0,[]
9070231,,Tappan Street,Tappan Street - Green Line Cleveland Circle Shuttle,,Cleveland Circle Shuttle,42.338794,-71.138504,,,,,0,,1,Brookline,,,3.0,"""['9070232', 'place-tapst', '70231', '70232']"""
9070233,,Dean Road,Dean Road - Green Line Cleveland Circle Shuttle,,Cleveland Circle Shuttle,42.338027,-71.141682,,,,,0,,1,Brookline,,,3.0,"""['9070234', 'place-denrd', '70233', '70234']"""
9070235,,Englewood Avenue - 1856 Beacon St,Englewood Avenue - Green Line Cleveland Circle Shuttle - 1856 Beacon St,,Cleveland Circle Shuttle,42.33715,-71.14601,,,,,0,,1,Brookline,Beacon Street,Englewood Avenue,3.0,[]
9070236,,Englewood Avenue - 1855 Beacon St,Englewood Avenue - Green Line Park Street & North Shuttle - 1855 Beacon St,,Park Street & North Shuttle,42.33677,-71.14586,,,,,0,,1,Brookline,Beacon Street,Clinton Path,3.0,[]
9070237,,Cleveland Circle,Cleveland Circle - Green Line Cleveland Circle Shuttle,,Cleveland Circle Shuttle,42.336612,-71.148524,,,,,0,,1,Brookline,,,3.0,"""['9070238', 'place-clmnl', '70237', '70238']"""
9070501,,Lechmere - Water St @ Lechmere Busway,Lechmere - Green Line Shuttle - Water St @ Lechmere Busway,,Green Line Shuttle,42.372648,-71.077741,,,,,0,,1,Cambridge,Water Street,Morgan Avenue,3.0,[]
9070502,,Lechmere - Monsignor O'Brien Hwy opp Gore St,Lechmere - Green Line Shuttle - Monsignor O'Brien Hwy opp Gore St,,Green Line Shuttle,42.371793,-71.077843,,,,,0,,1,Cambridge,Monsignor O'Brien Highway,Water Street,3.0,[]
9070503,,Union Square - Prospect St @ Union Sq Station,Union Square - Green Line Shuttle - Prospect St @ Union Sq Station,,Green Line Shuttle,42.37812,-71.09467,,,,,0,,1,Somerville,Prospect Street,Newton Street,3.0,[]
9070505,,Gilman Square - Medford St opp Gilman Sq Station,Gilman Square - Green Line Medford/Tufts Shuttle - Medford St opp Gilman Sq Station,,Medford/Tufts Shuttle,42.38745,-71.09538,,,,,0,,1,Somerville,Medford Street,Pearl Street,3.0,[]
9070506,,Gilman Square - Medford St @ Gilman Sq Station,Gilman Square - Green Line Copley & West Shuttle - Medford St @ Gilman Sq Station,,Copley & West Shuttle,42.38742,-71.0955,,,,,0,,1,Somerville,Medford Street,Pearl Street,3.0,[]
9070508,,Magoun Square - Medford St @ Lowell St,Magoun Square - Green Line Copley & West Shuttle - Medford St @ Lowell St,,Copley & West Shuttle,42.39645,-71.10375,,,,,0,,1,Somerville,Medford Street,Lowell Street,3.0,[]
9070513,,East Somerville - Joy St @ Washington St,East Somerville - Green Line Shuttle - Joy St @ Washington St,,Green Line Shuttle,42.38024,-71.08828,,,,,0,,1,Somerville,Joy Street,Washington Street,3.0,[]
9170012,,Massachusetts Avenue - Columbus Ave @ Newcastle Ct,Massachusetts Avenue - Orange Line Forest Hills Shuttle - Columbus Ave @ Newcastle Ct,,Forest Hills Shuttle,42.340441,-71.082114,,,,,0,,1,Boston,Columbus Avenue,Newcastle Court,3.0,[]
9170014,,Back Bay - Columbus Ave @ Dartmouth St,Back Bay - Orange Line Forest Hills Shuttle - Columbus Ave @ Dartmouth St,,Forest Hills Shuttle,42.34621,-71.074988,,,,,0,,1,Boston,Columbus Avenue,Dartmouth Street,3.0,[]
9170024,,Haymarket - Congress St @ New Sudbury St,Haymarket - Red Line Ashmont/Braintree Shuttle - Congress St @ New Sudbury St,,Ashmont/Braintree Shuttle,42.362096,-71.058311,,,,,0,,1,Boston,Congress Street,New Sudbury Street,3.0,[]
9170043,,Aquarium - State St opp McKinley Sq,Aquarium - Blue Line Shuttle - State St opp McKinley Sq,,Blue Line Shuttle,42.359451,-71.053228,,,,,0,,1,Boston,State Street,McKinley Square,3.0,[]
9170071,,Kendall/MIT - Main St @ Hayward St,Kendall/MIT - Red Line Ashmont/Braintree Shuttle - Main St @ Hayward St,,Ashmont/Braintree Shuttle,42.362309,-71.085583,,,,,0,,1,Cambridge,Main Street,Hayward Street,3.0,[]
9170076,,Park Street - Tremont St opp Hamilton Pl,Park Street - Red Line Shuttle - Tremont St opp Hamilton Pl,,Red Line Shuttle,42.356874,-71.061699,,,,,0,,1,Boston,Tremont Street,Hamilton Place,3.0,[]
9170099,,Wollaston - Newport Ave @ Brook St,Wollaston - Red Line Braintree Shuttle - Newport Ave @ Brook St,,Braintree Shuttle,42.26656,-71.020832,,,,,0,,1,Quincy,Newport Avenue,Brook Street,3.0,[]
9170100,,Wollaston - Newport Ave opp Brook St,Wollaston - Red Line Alewife Shuttle - Newport Ave opp Brook St,,Alewife Shuttle,42.266771,-71.020771,,,,,0,,1,Quincy,Newport Avenue,Brook Street,3.0,[]
9170152,,Hynes - Commonwealth Ave @ Massachusetts Ave,Hynes - Green Line Park Street & North Shuttle - Commonwealth Ave @ Massachusetts Ave,,Park Street & North Shuttle,42.34889,-71.08835,,,,,0,,1,Boston,Commonwealth Avenue,Massachusetts Avenue,3.0,"""['9170153']"""
9170154,,Copley - Boylston St @ Dartmouth St,Copley - Orange Line Oak Grove Shuttle - Boylston St @ Dartmouth St,,Park Street & North Shuttle,42.350109,-71.077016,,,,,0,,1,Boston,Boylston Street,Dartmouth Street,3.0,[]
9170168,,Newton Highlands - Walnut St @ Lincoln St,Newton Highlands - Green Line Shuttle - Walnut St @ Lincoln St,,Green Line Shuttle,42.32166,-71.206241,,,,,0,,1,Newton,Walnut Street,Lincoln Street,3.0,[]
9170169,,Newton Highlands - Walnut St @ Floral St,Newton Highlands - Green Line Shuttle - Walnut St @ Floral St,,Green Line Shuttle,42.321522,-71.205878,,,,,0,,1,Newton,Walnut Street,Floral Street,3.0,[]
9170178,,Brookline Hills,Brookline Hills - Green Line Shuttle,,Green Line Shuttle,42.331508,-71.126691,,,,,0,,1,Brookline,,,3.0,"""['place-brkhl', '70178', '70179', 'node-brkhl-eastramp-top']"""
9170206,,North Station - Lomasney Way @ Causeway St,North Station - Forest Hills/Copley & West Shuttle - Lomasney Way @ Causeway St,,Forest Hills/Copley & West Shuttle,42.364657,-71.063902,,,,,0,,1,Boston,Lomasney Way,Causeway Street,3.0,[]
9170211,,Fenway - Beacon St @ Park Dr,Fenway - Green Line Cleveland Circle Shuttle - Beacon St @ Park Dr,,Cleveland Circle Shuttle,42.346836,-71.104819,,,,,0,,1,Boston,Beacon Street,Park Drive,3.0,"""['9170212']"""
9170503,,Union Square - Somerville Ave @ Prospect St,Union Square - Green Line Shuttle - Somerville Ave @ Prospect St,,Green Line Shuttle,42.379038,-71.093704,,,,,0,,1,Somerville,Somerville Avenue,Prospect Street,3.0,[]
9270014,,Back Bay - 167 Dartmouth St,Back Bay - Green Line Shuttle - 167 Dartmouth St,,Green Line Shuttle,42.348067,-71.076171,,,,,0,,1,Boston,Dartmouth Street,,3.0,[]
9270022,,State - Congress St @ State St,State - Red Line Ashmont/Braintree Shuttle - Congress St @ State St,,Ashmont/Braintree Shuttle,42.359546,-71.057192,,,,,0,,1,Boston,Congress Street,State Street,3.0,[]
9370022,,State - Devonshire St @ State St,State - Red Line Ashmont/Braintree Shuttle - Devonshire St @ State St,,Ashmont/Braintree Shuttle,42.358594,-71.057305,,,,,0,,1,Boston,Devonshire Street,State Street,3.0,[]
9370024,,North Quincy - Hancock Street Garage,North Quincy - Red Line Alewife Shuttle - Hancock Street Garage,,,42.2767,-71.03086,,,,,0,,1,Quincy,Hancock Street,,3.0,[]
Boat-Aquarium,,Central Wharf (South),Central Wharf (South) - Winthrop Ferry,,Winthrop Ferry,42.358815,-71.048779,Boat-Aquarium,"Central Wharf near Milk St, Boston, MA 02110",https://www.mbta.com/stops/Boat-Aquarium,,0,,1,Boston,,,4.0,[]
Boat-Blossom,,Blossom Street Pier,Blossom Street Pier - Lynn Ferry,,Lynn Ferry,42.45481,-70.94802,Boat-zone-1A,"379 Blossom St Ext, Lynn, MA 01905",https://www.mbta.com/stops/Boat-Blossom,,0,,1,Lynn,,,4.0,[]
Boat-Charlestown,,Charlestown Navy Yard,Charlestown Navy Yard - Charlestown Ferry,,Charlestown Ferry,42.372756,-71.052528,,"Pier 4, Boston, MA 02129",https://www.mbta.com/stops/Boat-Charlestown,,0,,1,Boston,,,4.0,[]
Boat-Fan,,Seaport/Fan Pier,Seaport/Fan Pier - Winthrop Ferry,,Winthrop Ferry,42.353484,-71.04323,Boat-Fan,"Fan Pier Marina near Institute of Contemporary Art, Boston, MA 02210",https://www.mbta.com/stops/Boat-Fan,,0,,1,Boston,,,4.0,[]
Boat-George,,Georges Island,Georges Island - Hingham/Hull Ferry,,Hingham/Hull Ferry,42.319742,-70.930427,Boat-George,"George's Island, Boston, MA",https://www.mbta.com/stops/Boat-George,,0,,1,Boston,,,4.0,[]
Boat-Hingham,,Hingham,Hingham - Hingham/Hull Ferry,,Hingham/Hull Ferry,42.253956,-70.919844,Boat-Hingham,"28 Shipyard Dr, Hingham, MA 02043",https://www.mbta.com/stops/Boat-Hingham,,0,,1,Hingham,,,4.0,[]
Boat-Hull,,Hull,Hull - Hingham/Hull Ferry,,Hingham/Hull Ferry,42.303251,-70.920215,Boat-Hull,"180 Main St, Hull, MA 02045",https://www.mbta.com/stops/Boat-Hull,,0,,1,Hull,,,4.0,[]
Boat-Lewis,,Lewis Mall Wharf,Lewis Mall Wharf - East Boston Ferry,,East Boston Ferry,42.365867,-71.041958,Boat-Lewis,"65 Lewis St, Boston, MA 02128",https://www.mbta.com/stops/Boat-Lewis,,0,,1,Boston,,,4.0,[]
Boat-Logan,,Logan Airport Ferry Terminal,Logan Airport - Hingham/Hull Ferry,,Hingham/Hull Ferry,42.359789,-71.02734,Boat-Logan,"Harborside Dr, East Boston, MA 02128",https://www.mbta.com/stops/Boat-Logan,,0,,1,Boston,,,4.0,[]
Boat-Long,,Long Wharf (North),Long Wharf (North) - Gate 5,5,Gate 5,42.360795,-71.049976,Boat-Long,"Long Wharf near Christopher Columbus Park, Boston, MA 02110",https://www.mbta.com/stops/Boat-Long,,0,,1,Boston,,,4.0,[]
Boat-Long-South,,Long Wharf (South),Long Wharf (South) - Charlestown Ferry,,Charlestown Ferry,42.359448,-71.050498,Boat-Long,"Long Wharf near Old Atlantic Ave, Boston, MA 02110",https://www.mbta.com/stops/Boat-Long-South,,0,,1,Boston,,,4.0,[]
Boat-Long-South-4,,Long Wharf (South) - Gate 4,Long Wharf (South) - Gate 4,4,Gate 4,42.359897,-71.04859,Boat-Long,"Long Wharf near Old Atlantic Ave, Boston, MA 02110",https://www.mbta.com/stops/Boat-Long-South-4,,0,,1,Boston,,,4.0,[]
Boat-Quincy,,Quincy,Quincy - Winthrop Ferry,,Winthrop Ferry,42.30132,-71.03201,Boat-zone-1A,"Marina Bay near Squantum Point Park, Quincy, MA 02171",https://www.mbta.com/stops/Boat-Quincy,,0,,1,Quincy,,,4.0,[]
Boat-Rowes,,Rowes Wharf,Rowes Wharf - Gate C,C,Gate C,42.355721,-71.049897,Boat-Rowes,"60 Rowes Wharf, Boston, MA 02110",https://www.mbta.com/stops/Boat-Rowes,,0,,1,Boston,,,4.0,[]
Boat-Winthrop,,Winthrop Landing,Winthrop Landing - Winthrop Ferry,,Winthrop Ferry,42.366711,-70.973302,Boat-zone-1A,"705 Shirley St, Winthrop, MA 02152",https://www.mbta.com/stops/Boat-Winthrop,,0,,1,Winthrop,,,4.0,[]
place-CM-0493,,Wareham Village,,,,41.758333,-70.714722,CF-zone-buzzards,"176 Merchants Way, Wareham, MA 02571",https://www.mbta.com/stops/place-CM-0493,,1,,1,Wareham,,,,"""['CM-0493-S']"""
place-CM-0547,,Buzzards Bay,,,,41.744805,-70.616226,CF-zone-buzzards,"70 Main Street, Buzzards Bay, MA 02532",https://www.mbta.com/stops/place-CM-0547,,1,,1,Bourne,,,,"""['CM-0547-S']"""
place-CM-0564,,Bourne,,,,41.746497,-70.588772,CF-zone-buzzards,"21 Bourne Bridge, Bourne, MA 02532",https://www.mbta.com/stops/place-CM-0564,,1,,1,Bourne,,,,"""['CM-0564-S']"""
place-CM-0790,,Hyannis,,,,41.660225,-70.276583,CF-zone-hyannis,"215 Iyannough Road, Hyannis, MA 02601",https://www.mbta.com/stops/place-CM-0790,,1,,1,Barnstable,,,,"""['CM-0790-S']"""
place-DB-0095,,Readville,,,,42.238405,-71.133246,CR-zone-2,"1800 Hyde Park Ave, Hyde Park, MA 02136",https://www.mbta.com/stops/place-DB-0095,,1,,1,Boston,,,,"""['DB-0095', 'FB-0095-04', 'FB-0095-05', 'NEC-2192-02', 'NEC-2192-03']"""
DB-0095-B0,,Readville - Lower Parking Lot,Readville - Commuter Rail Shuttle - Lower Parking Lot,,Commuter Rail Shuttle,42.238773,-71.133271,,,,,0,place-DB-0095,1,Boston,,,3.0,[]
place-DB-2205,,Fairmount,,,,42.253638,-71.11927,CR-zone-1A,"Fairmount Ave and Truman Hwy, Hyde Park, MA 02136",https://www.mbta.com/stops/place-DB-2205,,1,,1,Boston,,,,"""['DB-2205', 'DB-2205-01', 'DB-2205-02']"""
DB-2205-B0,,Fairmount - Fairmount Ave opp Ramp,Fairmount - Outbound Shuttle - Fairmount Ave opp Ramp,,Outbound Shuttle,42.2537,-71.11933,,,,,0,place-DB-2205,1,Boston,Fairmount Avenue,,3.0,[]
DB-2205-B1,,Fairmount - Fairmount Ave @ Ramp,Fairmount - South Station Shuttle - Fairmount Ave @ Ramp,,South Station Shuttle,42.25362,-71.11946,,,,,0,place-DB-2205,1,Boston,Fairmount Avenue,,3.0,[]
place-DB-2222,,Blue Hill Avenue,,,,42.271466,-71.095782,CR-zone-1A,"Blue Hill Ave or Cummins Hwy at Woodhaven St, Mattapan, MA 02126",https://www.mbta.com/stops/place-DB-2222,,1,,1,Boston,,,,"""['DB-2222', 'DB-2222-01', 'DB-2222-02']"""
DB-2222-B0,,Blue Hill Avenue - Blue Hill Ave @ Woodhaven St,Blue Hill Avenue - Outbound Shuttle - Blue Hill Ave @ Woodhaven St,,Outbound Shuttle,42.27315,-71.093816,,,,,0,place-DB-2222,1,Boston,Blue Hill Avenue,Woodhaven Street,3.0,[]
DB-2222-B1,,Blue Hill Avenue - Blue Hill Ave opp Woodhaven St,Blue Hill Avenue - South Station Shuttle - Blue Hill Ave opp Woodhaven St,,South Station Shuttle,42.272976,-71.093404,,,,,0,place-DB-2222,1,Boston,Blue Hill Avenue,Woodhaven Street,3.0,[]
place-DB-2230,,Morton Street,,,,42.280994,-71.085475,CR-zone-1A,"865 Morton St, Mattapan, MA 02126",https://www.mbta.com/stops/place-DB-2230,,1,,1,Boston,,,,"""['DB-2230', 'DB-2230-01', 'DB-2230-02']"""
DB-2230-B0,,Morton Street - Morton St @ Evans St,Morton Street - Outbound Shuttle - Morton St @ Evans St,,Outbound Shuttle,42.280886,-71.084654,,,,,0,place-DB-2230,1,Boston,Morton Street,Evans Street,3.0,[]
DB-2230-B1,,Morton Street - Morton St opp Evans St,Morton Street - South Station Shuttle - Morton St opp Evans St,,South Station Shuttle,42.280779,-71.084621,,,,,0,place-DB-2230,1,Boston,Morton Street,Evans Street,3.0,[]
place-DB-2240,,Talbot Avenue,,,,42.292246,-71.07814,CR-zone-1A,"210 Talbot Ave, Boston, MA 02124",https://www.mbta.com/stops/place-DB-2240,,1,,1,Boston,,,,"""['DB-2240', 'DB-2240-01', 'DB-2240-02']"""
DB-2240-B0,,Talbot Avenue - Talbot Ave opp Pick-up/Drop-off,Talbot Avenue - Outbound Shuttle - Talbot Ave opp Pick-up/Drop-off,,Outbound Shuttle,42.291903,-71.077992,,,,,0,place-DB-2240,1,Boston,Talbot Avenue,,3.0,[]
DB-2240-B1,,Talbot Avenue - Talbot Ave @ Pick-up/Drop-off,Talbot Avenue - South Station Shuttle - Talbot Ave @ Pick-up/Drop-off,,South Station Shuttle,42.292015,-71.077978,,,,,0,place-DB-2240,1,Boston,Talbot Avenue,,3.0,[]
place-DB-2249,,Four Corners/Geneva,,,,42.305037,-71.076833,CR-zone-1A,"171 Geneva Ave, Boston, MA 02121",https://www.mbta.com/stops/place-DB-2249,,1,,1,Boston,,,,"""['DB-2249', 'DB-2249-01', 'DB-2249-02']"""
DB-2249-B2,,Four Corners/Geneva - Opp 198 Geneva Ave,Four Corners/Geneva - Outbound Shuttle - Opp 198 Geneva Ave,,Outbound Shuttle,42.305093,-71.076623,,,,,0,place-DB-2249,1,Boston,Geneva Avenue,Vaughan Avenue,3.0,[]
DB-2249-B3,,Four Corners/Geneva - 198 Geneva Ave,Four Corners/Geneva - South Station Shuttle - 198 Geneva Ave,,South Station Shuttle,42.305194,-71.076651,,,,,0,place-DB-2249,1,Boston,Geneva Avenue,Vaughan Avenue,3.0,[]
place-DB-2258,,Uphams Corner,,,,42.319125,-71.068627,CR-zone-1A,"691 Dudley St, Dorchester, MA 02125",https://www.mbta.com/stops/place-DB-2258,,1,,1,Boston,,,,"""['DB-2258', 'DB-2258-01', 'DB-2258-02']"""
DB-2258-B0,,Uphams Corner - Dudley St @ Alexander St,Uphams Corner - Outbound Shuttle - Dudley St @ Alexander St,,Outbound Shuttle,42.31871,-71.069253,,,,,0,place-DB-2258,1,Boston,Dudley Street,Alexander Street,3.0,[]
DB-2258-B1,,Uphams Corner - Dudley St @ Clifton St,Uphams Corner - South Station Shuttle - Dudley St @ Clifton St,,South Station Shuttle,42.318783,-71.069142,,,,,0,place-DB-2258,1,Boston,Dudley Street,Clifton Street,3.0,[]
place-DB-2265,,Newmarket,,,,42.327415,-71.065674,CR-zone-1A,"1070 Massachusetts Ave, Boston, MA 02118",https://www.mbta.com/stops/place-DB-2265,,1,,1,Boston,,,,"""['DB-2265', 'DB-2265-01', 'DB-2265-02']"""
DB-2265-B1,,Newmarket - Newmarket Sq @ Massachusetts Ave,Newmarket - Commuter Rail Shuttle - Newmarket Sq @ Massachusetts Ave,,Commuter Rail Shuttle,42.32755,-71.06588,,,,,0,place-DB-2265,1,Boston,Newmarket Square,Massachusetts Avenue,3.0,[]
place-ER-0099,,River Works,GE Employees Only,,,42.449927,-70.969848,CR-zone-2,"1000 Western Ave, Lynn, MA 01910 (General Electric employees only)",https://www.mbta.com/stops/place-ER-0099,,1,,2,Lynn,,,,"""['ER-0099', 'ER-0099-01', 'ER-0099-02']"""
place-ER-0115,,Lynn,,,,42.462953,-70.945421,CR-zone-2,"325 Broad St, Lynn, MA 01901",https://www.mbta.com/stops/place-ER-0115,,1,,1,Lynn,,,,"""['ER-0115', 'ER-0115-01', 'ER-0115-02']"""
place-ER-0117,,Lynn Interim,,,,42.46529,-70.940434,CR-zone-2,"11 Ellis St, Lynn, MA 01902",https://www.mbta.com/stops/place-ER-0117,,1,,1,Lynn,,,,"""['ER-0117-01', 'ER-0117-02']"""
place-ER-0128,,Swampscott,,,,42.473743,-70.922537,CR-zone-3,"Burrill St and Railroad Ave, Swampscott, MA 01907",https://www.mbta.com/stops/place-ER-0128,,1,,1,Swampscott,,,,"""['ER-0128', 'ER-0128-01', 'ER-0128-02']"""
ER-0128-B0,,Swampscott - Railroad Ave @ Burrill St,Swampscott - Commuter Rail Shuttle - Railroad Ave @ Burrill St,,Outbound Shuttle,42.473543,-70.922023,,,,,0,place-ER-0128,1,Swampscott,Railroad Avenue,Burrill Street,3.0,"""['ER-0128-B1']"""
place-ER-0168,,Salem,,,,42.524792,-70.895876,CR-zone-3,"252 Bridge St, Salem, MA 01970",https://www.mbta.com/stops/place-ER-0168,,1,,1,Salem,,,,"""['ER-0168-S']"""
ER-0168-B,,Salem - Busway,Salem - Commuter Rail Shuttle - Busway,,Commuter Rail Shuttle,42.524495,-70.896899,,,,,0,place-ER-0168,1,Salem,,,3.0,[]
place-ER-0183,,Beverly,,,,42.547276,-70.885432,CR-zone-4,"10 Park St, Beverly, MA 01915",https://www.mbta.com/stops/place-ER-0183,,1,,1,Beverly,,,,"""['ER-0183', 'ER-0183-01', 'ER-0183-02']"""
ER-0183-B,,Beverly - Park St,Beverly - Commuter Rail Shuttle - Park St,,Commuter Rail Shuttle,42.547223,-70.885254,,,,,0,place-ER-0183,1,Beverly,Park Street,Railroad Avenue,3.0,[]
place-ER-0208,,North Beverly,,,,42.583779,-70.883851,CR-zone-5,"Enon St and Dodge St, Beverly, MA 01915",https://www.mbta.com/stops/place-ER-0208,,1,,1,Beverly,,,,"""['ER-0208', 'ER-0208-01', 'ER-0208-02']"""
ER-0208-B,,North Beverly - Parking Lot,North Beverly - Commuter Rail Shuttle - Parking Lot,,Commuter Rail Shuttle,42.58379,-70.8839,,,,,0,place-ER-0208,1,Beverly,,,3.0,[]
ER-0208-B0,,North Beverly - Enon St @ Dodge St,North Beverly - Commuter Rail Outbound Shuttle - Enon St @ Dodge St,,Outbound Shuttle,42.583313,-70.88429,,,,,0,place-ER-0208,1,Beverly,Enon Street,Dodge Street,3.0,[]
ER-0208-B1,,North Beverly - Enon St opp Dodge St,North Beverly - Commuter Rail Boston Shuttle - Enon St opp Dodge St,,Boston Shuttle,42.583264,-70.884463,,,,,0,place-ER-0208,1,Beverly,Enon Street,Dodge Street,3.0,[]
place-ER-0227,,Hamilton/Wenham,,,,42.609212,-70.874801,CR-zone-5,"Bay Rd and Walnut Rd, Hamilton, MA 01982",https://www.mbta.com/stops/place-ER-0227,,1,,1,Hamilton,,,,"""['ER-0227-S']"""
ER-0227-B0,,Hamilton/Wenham - Bay Rd opp Railroad Ave,Hamilton/Wenham - Commuter Rail Outbound Shuttle - Bay Rd opp Railroad Ave,,Outbound Shuttle,42.610143,-70.874955,,,,,0,place-ER-0227,1,Hamilton,Bay Road,Railroad Avenue,3.0,[]
ER-0227-B1,,Hamilton/Wenham - Bay Rd @ Railroad Ave,Hamilton/Wenham - Commuter Rail Boston Shuttle - Bay Rd @ Railroad Ave,,Boston Shuttle,42.610426,-70.874816,,,,,0,place-ER-0227,1,Hamilton,Bay Road,Railroad Avenue,3.0,[]
place-ER-0276,,Ipswich,,,,42.676921,-70.840589,CR-zone-6,"4 Peatfield St, Ipswich, MA 01938",https://www.mbta.com/stops/place-ER-0276,,1,,1,Ipswich,,,,"""['ER-0276-S']"""
ER-0276-B,,Ipswich - Saltonstall St @ Market St,Ipswich - Commuter Rail Shuttle - Saltonstall St @ Market St,,Commuter Rail Shuttle,42.677882,-70.840107,,,,,0,place-ER-0276,1,Ipswich,Saltonstall Street,Market Street,3.0,[]
place-ER-0312,,Rowley,,,,42.726845,-70.859034,CR-zone-7,"70 Railroad Ave, Rowley, MA 01969",https://www.mbta.com/stops/place-ER-0312,,1,,1,Rowley,,,,"""['ER-0312-B', 'ER-0312-S']"""
place-ER-0362,,Newburyport,,,,42.797837,-70.87797,CR-zone-8,"25 Boston Way, Newburyport, MA 01950",https://www.mbta.com/stops/place-ER-0362,,1,,1,Newburyport,,,,"""['ER-0362', 'ER-0362-01', 'ER-0362-02']"""
ER-0362-B,,Newburyport - Route 1 Parking,Newburyport - Commuter Rail Shuttle - Route 1 Parking,,Commuter Rail Shuttle,42.797059,-70.877515,,,,,0,place-ER-0362,1,Newburyport,,,3.0,[]
place-FB-0109,,Endicott,,,,42.233249,-71.158647,CR-zone-2,"186 Grant Ave, Dedham, MA 02026",https://www.mbta.com/stops/place-FB-0109,,1,,2,Dedham,,,,"""['FB-0109', 'FB-0109-01', 'FB-0109-02']"""
place-FB-0118,,Dedham Corporate Center,,,,42.227079,-71.174254,CR-zone-2,"125 Allied Dr, Dedham, MA 02026",https://www.mbta.com/stops/place-FB-0118,,1,,1,Dedham,,,,"""['FB-0118', 'FB-0118-01', 'FB-0118-02']"""
Dedham Corp Center-S,,Dedham Corp Center,Dedham Corp Center - Commuter Rail Shuttle,,Commuter Rail Shuttle,42.227079,-71.174254,,,,,0,place-FB-0118,1,Dedham,,,3.0,[]
place-FB-0125,,Islington,,,,42.22105,-71.183961,CR-zone-3,"48 Carroll Ave, Westwood, MA 02090",https://www.mbta.com/stops/place-FB-0125,,1,,2,Westwood,,,,"""['FB-0125', 'FB-0125-01', 'FB-0125-02']"""
place-FB-0143,,Norwood Depot,,,,42.196857,-71.196688,CR-zone-3,"14 Hill St, Norwood, MA 02062",https://www.mbta.com/stops/place-FB-0143,,1,,1,Norwood,,,,"""['FB-0143', 'FB-0143-01', 'FB-0143-02']"""
place-FB-0148,,Norwood Central,,,,42.188775,-71.199665,CR-zone-3,"164 Broadway, Norwood, MA 02062",https://www.mbta.com/stops/place-FB-0148,,1,,1,Norwood,,,,"""['FB-0148', 'FB-0148-01', 'FB-0148-02', 'Norwood Central-S']"""
place-FB-0166,,Windsor Gardens,,,,42.172127,-71.219366,CR-zone-4,"Buckminster Dr and Engamore Ln, Norwood, MA 02062",https://www.mbta.com/stops/place-FB-0166,,1,,2,Norwood,,,,"""['FB-0166-S', 'Windsor Gardens-S']"""
place-FB-0177,,Plimptonville,,,,42.159123,-71.236125,CR-zone-4,"185 Plimpton St, Walpole, MA 02081",https://www.mbta.com/stops/place-FB-0177,,1,,2,Walpole,,,,"""['FB-0177-S']"""
place-FB-0191,,Walpole,,,,42.145477,-71.25779,CR-zone-4,"275 West St, Walpole, MA 02081",https://www.mbta.com/stops/place-FB-0191,,1,,2,Walpole,,,,"""['FB-0191-S']"""
FB-0191-B,,Walpole - North Parking Lot,Walpole - Commuter Rail Shuttle - North Parking Lot,,Commuter Rail Shuttle,42.145309,-71.257803,,,,,0,place-FB-0191,1,Walpole,,,3.0,[]
place-FB-0230,,Norfolk,,,,42.120694,-71.325217,CR-zone-5,"9 Rockwood Rd, Norfolk, MA 02056",https://www.mbta.com/stops/place-FB-0230,,1,,1,Norfolk,,,,"""['FB-0230-S']"""
FB-0230-B,,Norfolk - East Parking Lot,Norfolk - Commuter Rail Shuttle - East Parking Lot,,Commuter Rail Shuttle,42.120474,-71.32447,,,,,0,place-FB-0230,1,Norfolk,,,3.0,[]
place-FB-0275,,Franklin,,,,42.083238,-71.396102,CR-zone-6,"75 Depot St, Franklin, MA 02038",https://www.mbta.com/stops/place-FB-0275,,1,,2,Franklin,,,,"""['FB-0275-S']"""
FB-0275-B0,,Franklin - E Central St @ Cottage St,Franklin - Commuter Rail Shuttle - E Central St @ Cottage St,,Commuter Rail Shuttle,42.08235,-71.396213,,,,,0,place-FB-0275,1,Franklin,East Central Street,Cottage Street,3.0,[]
FB-0275-B1,,Franklin - Parking Lot,Franklin - Commuter Rail Shuttle - Parking Lot,,Commuter Rail Shuttle,42.083443,-71.396111,,,,,0,place-FB-0275,1,Franklin,,,3.0,[]
place-FB-0303,,Forge Park/495,,,,42.089941,-71.43902,CR-zone-6,"1000 W Central St, Franklin, MA 02038",https://www.mbta.com/stops/place-FB-0303,,1,,1,Franklin,,,,"""['FB-0303-S']"""
FB-0303-B,,Forge Park/495 - South Parking Lot,Forge Park/495 - Commuter Rail Shuttle - South Parking Lot,,Commuter Rail Shuttle,42.089825,-71.439075,,,,,0,place-FB-0303,1,Franklin,,,3.0,[]
place-FR-0064,,Belmont,,,,42.395896,-71.17619,CR-zone-1,"Common St and Concord Ave, Belmont, MA 02478",https://www.mbta.com/stops/place-FR-0064,,1,,2,Belmont,,,,"""['FR-0064', 'FR-0064-01', 'FR-0064-02', 'FR-0064-B0', 'FR-0064-B1']"""
place-FR-0074,,Waverley,,,,42.3876,-71.190744,CR-zone-1,"525 Trapelo Rd, Belmont, MA 02478",https://www.mbta.com/stops/place-FR-0074,,1,,2,Belmont,,,,"""['FR-0074', 'FR-0074-01', 'FR-0074-02']"""
FR-0074-B,,Waverly,Waverly - Commuter Rail Shuttle,,Commuter Rail Shuttle,42.387511,-71.191096,,,,,0,place-FR-0074,1,Belmont,,,3.0,[]
place-FR-0098,,Waltham,,,,42.374296,-71.235615,CR-zone-2,"75 Carter St, Waltham, MA 02453",https://www.mbta.com/stops/place-FR-0098,,1,,1,Waltham,,,,"""['FR-0098', 'FR-0098-01', 'FR-0098-B0', 'FR-0098-B1', 'FR-0098-S']"""
place-FR-0115,,Brandeis/Roberts,,,,42.361898,-71.260065,CR-zone-2,"1 Sawyer Rd, Waltham, MA 02453",https://www.mbta.com/stops/place-FR-0115,,1,,1,Waltham,,,,"""['FR-0115', 'FR-0115-01', 'FR-0115-02', 'FR-0115-B0', 'FR-0115-B1']"""
place-FR-0132,,Kendal Green,,,,42.37897,-71.282411,CR-zone-3,"198 Church St, Weston, MA",https://www.mbta.com/stops/place-FR-0132,,1,,2,Weston,,,,"""['FR-0132', 'FR-0132-01', 'FR-0132-02']"""
place-FR-0137,,Hastings,,,,42.385755,-71.289203,CR-zone-3,"105 Viles St, Weston, MA 02493",https://www.mbta.com/stops/place-FR-0137,,1,,2,Weston,,,,"""['FR-0137', 'FR-0137-01', 'FR-0137-02']"""
place-FR-0147,,Silver Hill,,,,42.395625,-71.302357,CR-zone-3,"Silver Hill Rd and Merriam St, Weston, MA 02493",https://www.mbta.com/stops/place-FR-0147,,1,,2,Weston,,,,"""['FR-0147', 'FR-0147-01', 'FR-0147-02']"""
place-FR-0167,,Lincoln,,,,42.413641,-71.325512,CR-zone-4,"160 Lincoln Rd, Lincoln, MA 01773",https://www.mbta.com/stops/place-FR-0167,,1,,2,Lincoln,,,,"""['FR-0167', 'FR-0167-01', 'FR-0167-02', 'FR-0167-B']"""
place-FR-0201,,Concord,,,,42.456565,-71.357677,CR-zone-5,"90 Thoreau St, Concord, MA 01742",https://www.mbta.com/stops/place-FR-0201,,1,,2,Concord,,,,"""['FR-0201', 'FR-0201-01', 'FR-0201-02', 'FR-0201-B0', 'FR-0201-B1']"""
place-FR-0219,,West Concord,,,,42.457043,-71.392892,CR-zone-5,"Commonwealth Ave and Main St, West Concord, MA 01742",https://www.mbta.com/stops/place-FR-0219,,1,,1,Concord,,,,"""['FR-0219', 'FR-0219-01', 'FR-0219-02', 'FR-0219-B']"""
place-FR-0253,,South Acton,,,,42.460375,-71.457744,CR-zone-6,"4 Central St, Acton, MA 01720",https://www.mbta.com/stops/place-FR-0253,,1,,1,Acton,,,,"""['FR-0253', 'FR-0253-01', 'FR-0253-02', 'FR-0253-B']"""
place-FR-0301,,Littleton/Route 495,,,,42.519236,-71.502643,CR-zone-7,"Grimes Ln and Foster St, Littleton, MA 01460",https://www.mbta.com/stops/place-FR-0301,,1,,1,Littleton,,,,"""['FR-0301', 'FR-0301-01', 'FR-0301-02', 'FR-0301-B']"""
place-FR-0361,,Ayer,,,,42.559074,-71.588476,CR-zone-8,"70 Main St, Ayer, MA 01432",https://www.mbta.com/stops/place-FR-0361,,1,,2,Ayer,,,,"""['FR-0361', 'FR-0361-01', 'FR-0361-02', 'FR-0361-B0', 'FR-0361-B1']"""
place-FR-0394,,Shirley,,,,42.545089,-71.648004,CR-zone-8,"Ayer Rd and Phoenix St, Shirley, MA 01464",https://www.mbta.com/stops/place-FR-0394,,1,,2,Shirley,,,,"""['FR-0394', 'FR-0394-01', 'FR-0394-02']"""
FR-0394-B0,,Shirley - Front St @ Phoenix St,Shirley - Commuter Rail Outbound Shuttle - Front St @ Phoenix St,,Outbound Shuttle,42.545003,-71.648064,,,,,0,place-FR-0394,1,Shirley,Front Street,Phoenix Street,3.0,"""['FR-0394-B1']"""
place-FR-0451,,North Leominster,,,,42.539017,-71.739186,CR-zone-8,"44 Nashua St, Leominster, MA 01453",https://www.mbta.com/stops/place-FR-0451,,1,,1,Leominster,,,,"""['FR-0451', 'FR-0451-01', 'FR-0451-02']"""
FR-0451-B,,North Leominster - Busway,North Leominster - Commuter Rail Shuttle - Busway,,Commuter Rail Shuttle,42.538727,-71.739104,,,,,0,place-FR-0451,1,Leominster,,,3.0,[]
place-FR-0494,,Fitchburg,,,,42.58072,-71.792611,CR-zone-8,"150 Main St, Fitchburg, MA 01420",https://www.mbta.com/stops/place-FR-0494,,1,,1,Fitchburg,,,,"""['FR-0494-CS']"""
FR-0494-B,,Fitchburg - Intermodal Transportation Center,Fitchburg - Commuter Rail Shuttle - Intermodal Transportation Center,,Commuter Rail Shuttle,42.581041,-71.792811,,,,,0,place-FR-0494,1,Fitchburg,,,3.0,[]
place-FR-3338,,Wachusett,,,,42.553477,-71.848488,CR-zone-8,"55 Authority Dr, Fitchburg, MA 01420",https://www.mbta.com/stops/place-FR-3338,,1,,1,Fitchburg,,,,"""['FR-3338-CS']"""
FR-3338-B,,Wachusett - Parking Lot,Wachusett - Commuter Rail Shuttle - Parking Lot,,Commuter Rail Shuttle,42.553441,-71.848127,,,,,0,place-FR-3338,1,Fitchburg,,,3.0,[]
place-FS-0049,,Foxboro,,,,42.0951,-71.26151,CR-zone-4,"Gillette Stadium near Lots 3 and 4, Foxborough, MA 02035",https://www.mbta.com/stops/place-FS-0049,,1,,1,Foxborough,,,,"""['FS-0049-S']"""
place-GB-0198,,Montserrat,,,,42.562171,-70.869254,CR-zone-4,"180 Essex St, Beverly, MA 01915",https://www.mbta.com/stops/place-GB-0198,,1,,1,Beverly,,,,"""['GB-0198', 'GB-0198-01', 'GB-0198-02']"""
GB-0198-B2,,Montserrat - Essex St @ Parramatta Rd,Montserrat - Commuter Rail Outbound Shuttle - Essex St @ Parramatta Rd,,Outbound Shuttle,42.561893,-70.86876,,,,,0,place-GB-0198,1,Beverly,Essex Street,Parramatta Road,3.0,[]
GB-0198-B3,,Montserrat - Essex St opp Parramatta Rd,Montserrat - Commuter Rail Boston Shuttle - Essex St opp Parramatta Rd,,Boston Shuttle,42.561896,-70.868956,,,,,0,place-GB-0198,1,Beverly,Essex Street,Parramatta Road,3.0,[]
place-GB-0222,,Prides Crossing,,,,42.559446,-70.825541,CR-zone-5,"600 Hale St, Beverly, MA 01915",https://www.mbta.com/stops/place-GB-0222,,1,,2,Beverly,,,,"""['GB-0222', 'GB-0222-01', 'GB-0222-02']"""
place-GB-0229,,Beverly Farms,,,,42.561651,-70.811405,CR-zone-5,"1 Oak St, Beverly, MA 01915",https://www.mbta.com/stops/place-GB-0229,,1,,1,Beverly,,,,"""['GB-0229', 'GB-0229-01', 'GB-0229-02']"""
GB-0229-B0,,Beverly Farms - West St opp Oak St,Beverly Farms - Commuter Rail Outbound Shuttle - West St opp Oak St,,Outbound Shuttle,42.561575,-70.812622,,,,,0,place-GB-0229,1,Beverly,West Street,Oak Street,3.0,[]
GB-0229-B1,,Beverly Farms - West St @ Oak St,Beverly Farms - Commuter Rail Boston Shuttle - West St @ Oak St,,Boston Shuttle,42.561413,-70.812093,,,,,0,place-GB-0229,1,Beverly,West Street,Oak Street,3.0,[]
place-GB-0254,,Manchester,,,,42.573687,-70.77009,CR-zone-6,"40 Beach St, Manchester, MA 01944",https://www.mbta.com/stops/place-GB-0254,,1,,1,Manchester-by-the-Sea,,,,"""['GB-0254', 'GB-0254-01', 'GB-0254-02']"""
GB-0254-B2,,Manchester - 11 Summer St,Manchester - Commuter Rail Shuttle - 11 Summer St,,Commuter Rail Shuttle,42.574457,-70.768786,,,,,0,place-GB-0254,1,Manchester,Summer Street,,3.0,[]
Manchester-S,,Manchester - Parking Lot,Manchester - Commuter Rail Shuttle - Parking Lot,,Commuter Rail Shuttle,42.574016,-70.768962,,,,,0,place-GB-0254,1,Manchester,,,3.0,[]
place-GB-0296,,West Gloucester,,,,42.611933,-70.705417,CR-zone-7,"290 Essex Ave, Gloucester, MA 01930",https://www.mbta.com/stops/place-GB-0296,,1,,1,Gloucester,,,,"""['GB-0296', 'GB-0296-01', 'GB-0296-02']"""
GB-0296-B0,,West Gloucester - Essex Ave @ Lynwood Ave,West Gloucester - Commuter Rail Outbound Shuttle - Essex Ave @ Lynwood Ave,,Outbound Shuttle,42.611523,-70.70493,,,,,0,place-GB-0296,1,Gloucester,Essex Avenue,Lynwood Avenue,3.0,[]
GB-0296-B1,,West Gloucester - Essex Ave opp Lynwood Ave,West Gloucester - Commuter Rail Boston Shuttle - Essex Ave opp Lynwood Ave,,Boston Shuttle,42.611626,-70.705014,,,,,0,place-GB-0296,1,Gloucester,Essex Avenue,Lynwood Avenue,3.0,[]
GB-0296-B2,,West Gloucester - Parking Lot,West Gloucester - Commuter Rail Shuttle - Parking Lot,,Commuter Rail Shuttle,42.611957,-70.70535,,,,,0,place-GB-0296,1,Gloucester,,,3.0,[]
place-GB-0316,,Gloucester,,,,42.616799,-70.668345,CR-zone-7,"75 Railroad Ave, Gloucester, MA 01930",https://www.mbta.com/stops/place-GB-0316,,1,,1,Gloucester,,,,"""['GB-0316-B0', 'GB-0316-S']"""
GB-0316-B1,,Gloucester - Opp 24 Railroad Ave,Gloucester - Commuter Rail Shuttle - Opp 24 Railroad Ave,,Commuter Rail Shuttle,42.61656,-70.66755,,,,,0,place-GB-0316,1,Gloucester,Railroad Avenue,,3.0,[]
place-GB-0353,,Rockport,,,,42.655491,-70.627055,CR-zone-8,"17 Railroad Ave, Rockport, MA 01966",https://www.mbta.com/stops/place-GB-0353,,1,,1,Rockport,,,,"""['GB-0353-B', 'GB-0353-S']"""
place-GRB-0118,,Weymouth Landing/East Braintree,,,,42.221503,-70.968152,CR-zone-2,"121 Commercial St, Weymouth, MA 02184",https://www.mbta.com/stops/place-GRB-0118,,1,,1,Weymouth,,,,"""['GRB-0118-S']"""
place-GRB-0146,,East Weymouth,,,,42.2191,-70.9214,CR-zone-2,"1590 Commercial St, East Weymouth, MA 02189",https://www.mbta.com/stops/place-GRB-0146,,1,,1,Weymouth,,,,"""['GRB-0146-S']"""
place-GRB-0162,,West Hingham,,,,42.235838,-70.902708,CR-zone-3,"20 Fort Hill Rd, Hingham, MA 02043",https://www.mbta.com/stops/place-GRB-0162,,1,,1,Hingham,,,,"""['GRB-0162-S']"""
place-GRB-0183,,Nantasket Junction,,,,42.244959,-70.869205,CR-zone-4,"190 Summer St, Hingham, MA 02043",https://www.mbta.com/stops/place-GRB-0183,,1,,1,Hingham,,,,"""['GRB-0183-S']"""
place-GRB-0199,,Cohasset,,,,42.24421,-70.837529,CR-zone-4,"110 Chief Justice Cushing Hwy, Cohasset, MA 02025",https://www.mbta.com/stops/place-GRB-0199,,1,,1,Cohasset,,,,"""['GRB-0199-S']"""
place-GRB-0233,,North Scituate,,,,42.219528,-70.788602,CR-zone-5,"777 Country Way, Scituate, MA 02066",https://www.mbta.com/stops/place-GRB-0233,,1,,1,Scituate,,,,"""['GRB-0233-B', 'GRB-0233-S']"""
place-GRB-0276,,Greenbush,,,,42.178776,-70.746641,CR-zone-6,"247 Old Driftway, Scituate, MA 02066",https://www.mbta.com/stops/place-GRB-0276,,1,,1,Scituate,,,,"""['GRB-0276-B', 'GRB-0276-S']"""
place-KB-0351,,Kingston,,,,41.97762,-70.721709,CR-zone-8,"134 Marion Dr, Kingston, MA 02364",https://www.mbta.com/stops/place-KB-0351,,1,,1,Kingston,,,,"""['KB-0351-S']"""
KB-0351-B1,,Kingston - Parking Lot,Kingston - Commuter Rail Shuttle - Parking Lot,,Commuter Rail Shuttle,41.97777,-70.72169,,,,,0,place-KB-0351,1,Kingston,,,3.0,[]
place-MM-0150,,Holbrook/Randolph,,,,42.156343,-71.027371,CR-zone-3,"Union St and Center St, Randolph, MA 02368",https://www.mbta.com/stops/place-MM-0150,,1,,1,Randolph,,,,"""['MM-0150-S']"""
place-MM-0186,,Montello,,,,42.106555,-71.022001,CR-zone-4,"150 Spark St, Brockton, MA 02302",https://www.mbta.com/stops/place-MM-0186,,1,,1,Brockton,,,,"""['MM-0186', 'MM-0186-CS', 'MM-0186-S']"""
place-MM-0200,,Brockton,,,,42.084659,-71.016534,CR-zone-4,"7 Commercial St, Brockton, MA 02302",https://www.mbta.com/stops/place-MM-0200,,1,,1,Brockton,,,,"""['MM-0200', 'MM-0200-CS', 'MM-0200-S']"""
place-MM-0219,,Campello,,,,42.060951,-71.011004,CR-zone-5,"30 Riverside Ave, Brockton, MA 02301",https://www.mbta.com/stops/place-MM-0219,,1,,1,Brockton,,,,"""['MM-0219-S']"""
place-MM-0277,,Bridgewater,,,,41.984916,-70.96537,CR-zone-6,"85 Burrill Ave, Bridgewater, MA 02324",https://www.mbta.com/stops/place-MM-0277,,1,,1,Bridgewater,,,,"""['MM-0277-B0', 'MM-0277-S']"""
place-MM-0356,,Middleborough/Lakeville,,,,41.87821,-70.918444,CR-zone-8,"125 Commercial Dr, Lakeville, MA 02347",https://www.mbta.com/stops/place-MM-0356,,1,,1,Lakeville,,,,"""['MM-0356-B0', 'MM-0356-S']"""
place-NB-0064,,Roslindale Village,,,,42.287442,-71.130283,CR-zone-1,"1 Belgrade Ave, Roslindale, MA 02131",https://www.mbta.com/stops/place-NB-0064,,1,,1,Boston,,,,"""['NB-0064-B1', 'NB-0064-S']"""
NB-0064-B0,,Roslindale Village - Belgrade Ave @ Robert St,Roslindale Village - Commuter Rail Outbound Shuttle - Belgrade Ave @ Robert St,,Outbound Shuttle,42.286921,-71.130665,,,,,0,place-NB-0064,1,Boston,,,3.0,[]
NB-0064-B2,,Roslindale Village - Corinth St @ Cohasset St,Roslindale Village - Commuter Rail Boston Shuttle - Corinth St @ Cohasset St,,Boston Shuttle,42.285956,-71.129553,,,,,0,place-NB-0064,1,Boston,,,3.0,[]
place-NB-0072,,Bellevue,,,,42.286588,-71.145557,CR-zone-1,"35 Colbert St, West Roxbury, MA 02132",https://www.mbta.com/stops/place-NB-0072,,1,,1,Boston,,,,"""['NB-0072-B', 'NB-0072-S']"""
NB-0072-B0,,Bellevue - Belgrade Ave @ Iona St,Bellevue - Commuter Rail Outbound Shuttle - Belgrade Ave @ McCraw St,,Outbound Shuttle,42.286077,-71.145052,,,,,0,place-NB-0072,1,Boston,,,3.0,[]
NB-0072-B1,,Bellevue - Belgrade Ave @ McCraw St,Bellevue - Commuter Rail Boston Shuttle - Belgrade Ave @ Iona St,,Boston Shuttle,42.285984,-71.145019,,,,,0,place-NB-0072,1,Boston,,,3.0,[]
place-NB-0076,,Highland,,,,42.284969,-71.153937,CR-zone-1,"Corey St and Hastings St, West Roxbury, MA 02132",https://www.mbta.com/stops/place-NB-0076,,1,,1,Boston,,,,"""['NB-0076-B', 'NB-0076-S']"""
NB-0076-B0,,Highland - Centre St @ Corey St,Highland - Commuter Rail Outbound Shuttle - Centre St @ Corey St,,Outbound Shuttle,42.286119,-71.155081,,,,,0,place-NB-0076,1,Boston,,,3.0,"""['NB-0076-B1']"""
place-NB-0080,,West Roxbury,,,,42.281358,-71.160065,CR-zone-1,"450 Lagrange St, West Roxbury, MA 02132",https://www.mbta.com/stops/place-NB-0080,,1,,1,Boston,,,,"""['NB-0080-B0', 'NB-0080-B1', 'NB-0080-S']"""
NB-0080-B2,,West Roxbury - Centre St @ Lagrange St,West Roxbury - Commuter Rail Outbound Shuttle - Centre St @ Lagrange St,,Outbound Shuttle,42.280858,-71.158278,,,,,0,place-NB-0080,1,Boston,,,3.0,"""['NB-0080-B3']"""
place-NB-0109,,Hersey,,,,42.275648,-71.215528,CR-zone-2,"Great Plain Ave and Broad Meadow Rd, Needham, MA 02492",https://www.mbta.com/stops/place-NB-0109,,1,,1,Needham,,,,"""['NB-0109-B0', 'NB-0109-B1', 'NB-0109-S']"""
place-NB-0120,,Needham Junction,,,,42.273187,-71.235559,CR-zone-2,"51 Junction St, Needham, MA 02492",https://www.mbta.com/stops/place-NB-0120,,1,,1,Needham,,,,"""['NB-0120-B0', 'NB-0120-B1', 'NB-0120-S']"""
place-NB-0127,,Needham Center,,,,42.280775,-71.237686,CR-zone-2,"Great Plain Ave and Eaton Sq, Needham, MA 02492",https://www.mbta.com/stops/place-NB-0127,,1,,1,Needham,,,,"""['NB-0127-B', 'NB-0127-S']"""
NB-0127-B0,,Needham Center - Chapel St @ Great Plain Ave,Needham Center - Commuter Rail Outbound Shuttle - Chapel St @ Great Plain Ave,,Commuter Rail Shuttle,42.280372,-71.236875,,,,,0,place-NB-0127,1,Needham,,,3.0,[]
NB-0127-B1,,Needham Center - Chestnut St @ Great Plain Ave,Needham Center - Commuter Rail Boston Shuttle - Chestnut St @ Great Plain Ave,,Boston Shuttle,42.280087,-71.237058,,,,,0,place-NB-0127,1,Needham,,,3.0,[]
place-NB-0137,,Needham Heights,,,,42.293444,-71.236027,CR-zone-2,"95 Avery Sq, Needham, MA 02494",https://www.mbta.com/stops/place-NB-0137,,1,,1,Needham,,,,"""['NB-0137-B', 'NB-0137-S']"""
NB-0137-B0,,Needham Heights - Highland Ave @ Mark Lee Rd,Needham Heights - Commuter Rail Outbound Shuttle - Highland Ave @ Mark Lee Rd,,Outbound Shuttle,42.293995,-71.235193,,,,,0,place-NB-0137,1,Needham,,,3.0,[]
NB-0137-B1,,Needham Heights - Highland Ave @ Avery Sq,Needham Heights - Commuter Rail Boston Shuttle - Highland Ave @ Avery Sq,,Boston Shuttle,42.294072,-71.235355,,,,,0,place-NB-0137,1,Needham,,,3.0,[]
place-NEC-1659,,Wickford Junction,,,,41.581289,-71.491147,CR-zone-10,"1011 Ten Rod Rd, North Kingstown, RI",https://www.mbta.com/stops/place-NEC-1659,,1,,1,North Kingstown,,,,"""['NEC-1659-03']"""
NEC-1659-B,,Wickford Junction - Pick-up/Drop-off,Wickford Junction - Commuter Rail Shuttle - Pick-up/Drop-off,,Commuter Rail Shuttle,41.581095,-71.49183,,,,,0,place-NEC-1659,1,North Kingstown,,,3.0,[]
place-NEC-1768,,TF Green Airport,,,,41.726599,-71.442453,CR-zone-9,"700 Jefferson Blvd, Warwick, RI 02886",https://www.mbta.com/stops/place-NEC-1768,,1,,1,Warwick,,,,"""['NEC-1768-03']"""
NEC-1768-B,,TF Green Airport - 700 Jefferson Blvd,TF Green Airport - Commuter Rail Shuttle - 700 Jefferson Blvd,,Commuter Rail Shuttle,41.727594,-71.443341,,,,,0,place-NEC-1768,1,Warwick,Jefferson Boulevard,,3.0,[]
place-NEC-1851,,Providence,,,,41.829293,-71.413301,CR-zone-8,"100 Gaspee St, Providence, RI 02903",https://www.mbta.com/stops/place-NEC-1851,,1,,1,Providence,,,,"""['NEC-1851', 'NEC-1851-01', 'NEC-1851-02', 'NEC-1851-03', 'NEC-1851-05']"""
NEC-1851-B0,,Providence - Railroad St @ Providence Station,Providence - Commuter Rail Shuttle - Railroad St @ Providence Station,,Commuter Rail Shuttle,41.829073,-71.413033,,,,,0,place-NEC-1851,1,Providence,Railroad Street,,3.0,[]
NEC-1851-B1,,Providence - Gaspee St @ Providence Station,Providence - Commuter Rail Boston Shuttle - Gaspee St @ Providence Station,,Boston Shuttle,41.82929,-71.41377,,,,,0,place-NEC-1851,1,Providence,Gaspee Street,,3.0,[]
NEC-1851-B2,,Providence - Gaspee St opp Providence Station,Providence - Commuter Rail Providence Shuttle - Gaspee St opp Providence Station,,Providence Shuttle,41.82941,-71.41391,,,,,0,place-NEC-1851,1,Providence,Gaspee Street,,3.0,[]
place-NEC-1891,,Pawtucket/Central Falls,,,,41.878762,-71.392,CR-zone-8,"300 Pine St, Pawtucket, RI 02860",https://www.mbta.com/stops/place-NEC-1891,,1,,1,Pawtucket,,,,"""['NEC-1891', 'NEC-1891-01', 'NEC-1891-02']"""
NEC-1891-B,,Pawtucket/Central Falls - Transit Center,Pawtucket/Central Falls - Commuter Rail Shuttle - Transit Center,,Commuter Rail Shuttle,41.87853,-71.39181,,,,,0,place-NEC-1891,1,Pawtucket,,,3.0,[]
door-NEC-1891-barton,,"Pawtucket/Central Falls - Barton St, Pick-up/Drop-off","Pawtucket/Central Falls - Barton St, Pick-up/Drop-off",,,41.87849,-71.392761,,,,level_ground,2,place-NEC-1891,1,Pawtucket,,,,[]
door-NEC-1891-pinebus,,"Pawtucket/Central Falls - Buses, Pine St","Pawtucket/Central Falls - Buses, Pine St",,,41.878566,-71.391797,,,,level_ground,2,place-NEC-1891,1,Pawtucket,,,,[]
door-NEC-1891-pinedrop,,"Pawtucket/Central Falls - Pine St, Pick-up/Drop-off","Pawtucket/Central Falls - Pine St, Pick-up/Drop-off",,,41.878974,-71.391064,,,,level_ground,2,place-NEC-1891,1,Pawtucket,,,,[]
place-NEC-1919,,South Attleboro,,,,41.897943,-71.354621,CR-zone-7,"1315 Newport Ave, Attleboro, MA 02703",https://www.mbta.com/stops/place-NEC-1919,,1,,1,Attleboro,,,,"""['NEC-1919', 'NEC-1919-01', 'NEC-1919-02']"""
place-NEC-1969,,Attleboro,,,,41.940739,-71.285094,CR-zone-7,"133 South Main St, Attleboro, MA 02703",https://www.mbta.com/stops/place-NEC-1969,,1,,1,Attleboro,,,,"""['NEC-1969', 'NEC-1969-03', 'NEC-1969-04']"""
NEC-1969-B,,Attleboro - Transit Center,Attleboro - Commuter Rail Shuttle - Transit Center,,Commuter Rail Shuttle,41.94147,-71.28519,,,,,0,place-NEC-1969,1,Attleboro,,,3.0,[]
place-NEC-2040,,Mansfield,,,,42.032787,-71.219917,CR-zone-6,"1 Crocker St, Mansfield, MA 02048",https://www.mbta.com/stops/place-NEC-2040,,1,,1,Mansfield,,,,"""['NEC-2040', 'NEC-2040-01', 'NEC-2040-02']"""
place-NEC-2108,,Sharon,,,,42.124553,-71.184468,CR-zone-4,"1 Upland Rd, Sharon, MA 02067",https://www.mbta.com/stops/place-NEC-2108,,1,,1,Sharon,,,,"""['NEC-2108', 'NEC-2108-01', 'NEC-2108-02']"""
place-NEC-2139,,Canton Junction,,,,42.163204,-71.15376,CR-zone-3,"Beaumont St and Sherman St, Canton, MA 02021",https://www.mbta.com/stops/place-NEC-2139,,1,,1,Canton,,,,"""['NEC-2139', 'NEC-2139-01', 'NEC-2139-02', 'SB-0150-04', 'SB-0150-06']"""
place-NEC-2173,,Route 128,,,,42.210308,-71.147134,CR-zone-2,"50 University Ave, Westwood, MA 02090",https://www.mbta.com/stops/place-NEC-2173,,1,,1,Westwood,,,,"""['NEC-2173', 'NEC-2173-01', 'NEC-2173-02']"""
place-NEC-2203,,Hyde Park,,,,42.25503,-71.125526,CR-zone-1,"1 Pingree St, Hyde Park, MA 02136",https://www.mbta.com/stops/place-NEC-2203,,1,,1,Boston,,,,"""['NEC-2203', 'NEC-2203-02', 'NEC-2203-03']"""
place-NHRML-0055,,West Medford,,,,42.421776,-71.133342,CR-zone-1A,"481 High St, Medford, MA 02155",https://www.mbta.com/stops/place-NHRML-0055,,1,,2,Medford,,,,"""['NHRML-0055', 'NHRML-0055-01', 'NHRML-0055-02']"""
NHRML-0055-B0,,West Medford - Playstead Rd @ Irving St,West Medford - Commuter Rail Outbound Shuttle - Playstead Rd @ Irving St,,Outbound Shuttle,42.4218,-71.133027,,,,,0,place-NHRML-0055,1,Medford,Playstead Road,Irving Street,3.0,[]
place-NHRML-0073,,Wedgemere,,,,42.444948,-71.140169,CR-zone-1,"25 Mystic Valley Pkwy, Winchester, MA 01890",https://www.mbta.com/stops/place-NHRML-0073,,1,,1,Winchester,,,,"""['NHRML-0073', 'NHRML-0073-01', 'NHRML-0073-02']"""
place-NHRML-0078,,Winchester Center,,,,42.451088,-71.13783,CR-zone-1,"29 Waterfield Rd, Winchester, MA 01890",https://www.mbta.com/stops/place-NHRML-0078,,1,,1,Winchester,,,,"""['NHRML-0078', 'NHRML-0078-01', 'NHRML-0078-02']"""
place-NHRML-0116,,Mishawum,,,,42.504402,-71.137618,CR-zone-2,"250 Mishawum Rd, Woburn, MA 01801",https://www.mbta.com/stops/place-NHRML-0116,,1,,2,Woburn,,,,"""['NHRML-0116', 'NHRML-0116-01', 'NHRML-0116-02']"""
place-NHRML-0127,,Anderson/Woburn,,,,42.516987,-71.144475,CR-zone-2,"100 Atlantic Ave, Woburn, MA 01801",https://www.mbta.com/stops/place-NHRML-0127,,1,,1,Woburn,,,,"""['NHRML-0127', 'NHRML-0127-01', 'NHRML-0127-02']"""
place-NHRML-0152,,Wilmington,,,,42.546624,-71.174334,CR-zone-3,"405 Main St, Wilmington, MA 01887",https://www.mbta.com/stops/place-NHRML-0152,,1,,1,Wilmington,,,,"""['NHRML-0152', 'NHRML-0152-01', 'NHRML-0152-02']"""
place-NHRML-0218,,North Billerica,,,,42.593248,-71.280995,CR-zone-5,"Ruggles St and Station St, North Billerica, MA 01862",https://www.mbta.com/stops/place-NHRML-0218,,1,,1,Billerica,,,,"""['NHRML-0218', 'NHRML-0218-01', 'NHRML-0218-02']"""
NHRML-0218-B0,,North Billerica - Billerica Ave @ East Parking Lot,North Billerica - Commuter Rail Shuttle - Billerica Ave @ East Parking Lot,,Commuter Rail Shuttle,42.593418,-71.279762,,,,,0,place-NHRML-0218,1,Billerica,Billerica Avenue,,3.0,[]
NHRML-0218-B1,,North Billerica - West Parking Lot,North Billerica - Commuter Rail Shuttle,,Commuter Rail Shuttle - West Parking Lot,42.593132,-71.281252,,,,,0,place-NHRML-0218,1,Billerica,,,3.0,[]
place-NHRML-0254,,Lowell,,,,42.63535,-71.314543,CR-zone-6,"101 Thorndike St, Lowell, MA 01852",https://www.mbta.com/stops/place-NHRML-0254,,1,,1,Lowell,,,,"""['NHRML-0254', 'NHRML-0254-03', 'NHRML-0254-04']"""
place-PB-0158,,South Weymouth,,,,42.155025,-70.953302,CR-zone-3,"89 Trotter Rd, Weymouth, MA 02190",https://www.mbta.com/stops/place-PB-0158,,1,,1,Weymouth,,,,"""['PB-0158-S', 'South Weymouth-S']"""
place-PB-0194,,Abington,,,,42.107156,-70.934405,CR-zone-4,"231 Centre Ave, Abington, MA 02351",https://www.mbta.com/stops/place-PB-0194,,1,,1,Abington,,,,"""['PB-0194-S']"""
place-PB-0212,,Whitman,,,,42.082749,-70.923411,CR-zone-5,"383 South Ave, Whitman, MA 02382",https://www.mbta.com/stops/place-PB-0212,,1,,1,Whitman,,,,"""['PB-0212-S']"""
place-PB-0245,,Hanson,,,,42.043967,-70.882438,CR-zone-6,"1070 Main St, Hanson, MA 02341",https://www.mbta.com/stops/place-PB-0245,,1,,1,Hanson,,,,"""['PB-0245-S']"""
place-PB-0281,,Halifax,,,,42.014739,-70.824263,CR-zone-7,"6 Garden Rd, Halifax, MA 02338",https://www.mbta.com/stops/place-PB-0281,,1,,1,Halifax,,,,"""['PB-0281', 'PB-0281-CS', 'PB-0281-S']"""
PB-0281-B0,,Halifax - Parking Lot,Halifax - Commuter Rail Shuttle - Parking Lot,,Commuter Rail Shuttle,42.01456,-70.82424,,,,,0,place-PB-0281,1,Halifax,,,3.0,[]
place-PB-0356,,Plymouth,,,,41.981278,-70.690421,CR-zone-8,"385 Court St, Plymouth, MA 02360",https://www.mbta.com/stops/place-PB-0356,,1,,1,Plymouth,,,,"""['PB-0356-S']"""
place-SB-0156,,Canton Center,,,,42.157095,-71.14628,CR-zone-3,"710 Washington St, Canton, MA 02021",https://www.mbta.com/stops/place-SB-0156,,1,,1,Canton,,,,"""['SB-0156-S']"""
place-SB-0189,,Stoughton,,,,42.124084,-71.103627,CR-zone-4,"45 Wyman St, Stoughton, MA 02072",https://www.mbta.com/stops/place-SB-0189,,1,,1,Stoughton,,,,"""['SB-0189-S']"""
place-WML-0025,,Lansdowne,,,,42.347581,-71.099974,CR-zone-1A,"25 David Ortiz Dr, Boston, MA 02215",https://www.mbta.com/stops/place-WML-0025,,1,,1,Boston,,,,"""['WML-0025', 'WML-0025-05', 'WML-0025-07']"""
place-WML-0035,,Boston Landing,,,,42.357293,-71.139883,CR-zone-1A,"100 Arthur St, Boston, MA 02134",https://www.mbta.com/stops/place-WML-0035,,1,,1,Boston,,,,"""['WML-0035', 'WML-0035-01', 'WML-0035-02', 'WML-0035-B']"""
WML-0035-B0,,Boston Landing - Guest St @ Arthur St,Boston Landing - Commuter Rail Outbound Shuttle - Guest St @ Arthur St,,Outbound Shuttle,42.35658,-71.14208,,,,,0,place-WML-0035,1,Boston,Guest Street,Arthur Street,3.0,"""['WML-0035-B1']"""
place-WML-0081,,Newtonville,,,,42.351702,-71.205408,CR-zone-1,"770 Washington St, Newton, MA 02460",https://www.mbta.com/stops/place-WML-0081,,1,,2,Newton,,,,"""['WML-0081-02', 'node-WML-0081-harvardstairs-bottom', 'node-WML-0081-walnutstairs-bottom']"""
WML-0081-B2,,Newtonville - Washington St @ Walnut St,Newtonville - Commuter Rail Outbound Shuttle - Washington St @ Walnut St,,Outbound Shuttle,42.35163,-71.20765,,,,,0,place-WML-0081,1,Newton,Washington Street,Walnut Street,3.0,"""['WML-0081-B3']"""
door-WML-0081-harvard,,Newtonville - Harvard St,Newtonville - Harvard St,,,42.352499,-71.202209,,,,level_in_street,2,place-WML-0081,2,Newton,,,,[]
door-WML-0081-walnut,,Newtonville - Walnut St,Newtonville - Walnut St,,,42.351356,-71.20701,,,,level_in_street,2,place-WML-0081,2,Newton,,,,[]
place-WML-0091,,West Newton,,,,42.347878,-71.230528,CR-zone-2,"1395 Washington St, Newton, MA 02465",https://www.mbta.com/stops/place-WML-0091,,1,,2,Newton,,,,"""['WML-0091-02', 'WML-0091-B0', 'WML-0091-B1', 'node-WML-0091-ebwasstairs-bottom', 'node-WML-0091-wbwasstairs-bottom']"""
door-WML-0091-ebwas,,West Newton - Washington St (East),West Newton - Washington St (East),,,42.347974,-71.228818,,,,level_in_street,2,place-WML-0091,2,Newton,,,,[]
door-WML-0091-wbwas,,West Newton - Washington St (West),West Newton - Washington St (West),,,42.347664,-71.232233,,,,level_in_street,2,place-WML-0091,2,Newton,,,,[]
place-WML-0102,,Auburndale,,,,42.345833,-71.250373,CR-zone-2,"Auburn St and Woodland Rd, Newton, MA 02466",https://www.mbta.com/stops/place-WML-0102,,1,,2,Newton,,,,"""['WML-0102-02', 'WML-0102-B', 'node-WML-0102-auburnstairs-bottom', 'node-WML-0102-woodlandstairs-bottom']"""
WML-0102-B0,,Auburndale - Woodland Rd opp Auburndale Sta,Auburndale - Commuter Rail Outbound Shuttle - Woodland Rd opp Auburndale Sta,,Outbound Shuttle,42.34507,-71.25223,,,,,0,place-WML-0102,1,Newton,Woodland Road,,3.0,[]
door-WML-0102-auburn,,Auburndale - Auburn St,Auburndale - Auburn St,,,42.346332,-71.246948,,,,level_in_street,2,place-WML-0102,2,Newton,,,,[]
door-WML-0102-woodland,,Auburndale - Woodland Rd,Auburndale - Woodland Rd,,,42.345139,-71.252126,,,,level_in_street,2,place-WML-0102,2,Newton,,,,[]
place-WML-0125,,Wellesley Farms,,,,42.323608,-71.272288,CR-zone-3,"90 Croton St, Wellesley, MA 02481",https://www.mbta.com/stops/place-WML-0125,,1,,2,Wellesley,,,,"""['WML-0125', 'WML-0125-01', 'WML-0125-02']"""
place-WML-0135,,Wellesley Hills,,,,42.31037,-71.277044,CR-zone-3,"341 Washington St, Wellesley, MA 02481",https://www.mbta.com/stops/place-WML-0135,,1,,2,Wellesley,,,,"""['WML-0135', 'WML-0135-01', 'WML-0135-02']"""
WML-0135-B0,,Wellesley Hills - Washington St opp Abbott Rd,Wellesley Hills - Commuter Rail Outbound Shuttle - Washington St opp Abbott Rd,,Commuter Rail Shuttle,42.31014,-71.27672,,,,,0,place-WML-0135,1,Wellesley,Washington Street,,3.0,[]
WML-0135-B1,,Wellesley Hills - Washington St @ Abbott Rd,Wellesley Hills - Commuter Rail Boston Shuttle - Washington St @ Abbott Rd,,Commuter Rail Shuttle,42.31009,-71.27658,,,,,0,place-WML-0135,1,Wellesley,Washington Street,Abbott Road,3.0,[]
place-WML-0147,,Wellesley Square,,,,42.297526,-71.294173,CR-zone-3,"1 Grove St, Wellesley, MA 02482",https://www.mbta.com/stops/place-WML-0147,,1,,2,Wellesley,,,,"""['WML-0147', 'WML-0147-01', 'WML-0147-02']"""
WML-0147-B0,,Wellesley Square - Central St @ Railroad Ave,Wellesley Square - Commuter Rail Outbound Shuttle - Central St @ Railroad Ave,,Commuter Rail Shuttle,42.29657,-71.29367,,,,,0,place-WML-0147,1,Wellesley,Central Street,Railroad Avenue,3.0,[]
WML-0147-B1,,Wellesley Square - Central St opp Railroad Ave,Wellesley Square - Commuter Rail Boston Shuttle - Central St opp Railroad Ave,,Commuter Rail Shuttle,42.29644,-71.29367,,,,,0,place-WML-0147,1,Wellesley,Central Street,,3.0,[]
place-WML-0177,,Natick Center,,,,42.285719,-71.347133,CR-zone-4,"1 Walnut St, Natick, MA 01760",https://www.mbta.com/stops/place-WML-0177,,1,,2,Natick,,,,"""['WML-0177', 'WML-0177-01', 'WML-0177-02']"""
WML-0177-B0,,Natick Center - South Ave opp Adams St,Natick Center - Commuter Rail Outbound Shuttle - South Ave opp Adams St,,Commuter Rail Shuttle,42.28535,-71.3469,,,,,0,place-WML-0177,1,Natick,South Avenue,,3.0,[]
WML-0177-B1,,Natick Center - South Ave @ Washington St,Natick Center - Commuter Rail Boston Shuttle - South Ave @ Washington St,,Commuter Rail Shuttle,42.28529,-71.34666,,,,,0,place-WML-0177,1,Natick,South Avenue,Washington Street,3.0,[]
place-WML-0199,,West Natick,,,,42.283064,-71.391797,CR-zone-4,"249 West Central St, Natick, MA 01760",https://www.mbta.com/stops/place-WML-0199,,1,,1,Natick,,,,"""['WML-0199', 'WML-0199-01', 'WML-0199-02']"""
WML-0199-B0,,West Natick - W Central St @ West Natick Parking Lot,West Natick - Commuter Rail Outbound Shuttle - W Central St @ West Natick Parking Lot,,Commuter Rail Shuttle,42.28192,-71.39095,,,,,0,place-WML-0199,1,Natick,West Central Street,,3.0,[]
WML-0199-B1,,West Natick - W Central St opp West Natick Parking Lot,West Natick - Commuter Rail Boston Shuttle - W Central St opp West Natick Parking Lot,,Commuter Rail Shuttle,42.28181,-71.3912,,,,,0,place-WML-0199,1,Natick,West Central Street,,3.0,[]
place-WML-0214,,Framingham,,,,42.276108,-71.420055,CR-zone-5,"417 Waverly St, Framingham, MA 01702",https://www.mbta.com/stops/place-WML-0214,,1,,1,Framingham,,,,"""['WML-0214', 'WML-0214-01', 'WML-0214-02']"""
WML-0214-B,,Framingham - Waverly St @ Framingham Station,Framingham - Commuter Rail Shuttle - Waverly St @ Framingham Station,,Commuter Rail Shuttle,42.276009,-71.419555,,,,,0,place-WML-0214,1,Framingham,Waverly Street,,3.0,[]
place-WML-0252,,Ashland,,,,42.26149,-71.482161,CR-zone-6,"Pleasant St and Cordaville Rd, Ashland, MA 01721",https://www.mbta.com/stops/place-WML-0252,,1,,1,Ashland,,,,"""['WML-0252', 'WML-0252-01', 'WML-0252-02']"""
WML-0252-B,,Ashland - South Parking Lot,Ashland - Commuter Rail Shuttle - South Parking Lot,,Commuter Rail Shuttle,42.261426,-71.482251,,,,,0,place-WML-0252,1,Ashland,,,3.0,[]
place-WML-0274,,Southborough,,,,42.267024,-71.524371,CR-zone-6,"87 Southville Rd, Southborough, MA 01772",https://www.mbta.com/stops/place-WML-0274,,1,,1,Southborough,,,,"""['WML-0274', 'WML-0274-01', 'WML-0274-02']"""
place-WML-0340,,Westborough,,,,42.269644,-71.647076,CR-zone-7,"Smith Pkwy and Fisher St, Westborough, MA 01581",https://www.mbta.com/stops/place-WML-0340,,1,,1,Westborough,,,,"""['WML-0340', 'WML-0340-01', 'WML-0340-02']"""
place-WML-0364,,Grafton,,,,42.2466,-71.685325,CR-zone-8,"1 Pine St, North Grafton, MA 01536-1856",https://www.mbta.com/stops/place-WML-0364,,1,,1,Grafton,,,,"""['WML-0364', 'WML-0364-01', 'WML-0364-02']"""
place-WML-0442,,Worcester,,,,42.261835,-71.791806,CR-zone-8,"2 Washington Sq, Worcester, MA 01608",https://www.mbta.com/stops/place-WML-0442,,1,,1,Worcester,,,,"""['WML-0442-CS']"""
place-WR-0062,,Wyoming Hill,,,,42.451731,-71.069379,CR-zone-1,"40 West Wyoming Ave, Melrose, MA 02176",https://www.mbta.com/stops/place-WR-0062,,1,,2,Melrose,,,,"""['WR-0062', 'WR-0062-01', 'WR-0062-02']"""
WR-0062-B0,,Wyoming Hill - Pleasant St @ W Wyoming Ave,Wyoming Hill - Commuter Rail Outbound Shuttle - Pleasant St @ W Wyoming Ave,,Outbound Shuttle,42.45191,-71.070114,,,,,0,place-WR-0062,1,Melrose,Pleasant Street,West Wyoming Avenue,3.0,[]
WR-0062-B1,,Wyoming Hill - W Wyoming Ave @ Wyoming Hill Station,Wyoming Hill - Commuter Rail Boston Shuttle - W Wyoming Ave @ Wyoming Hill Station,,Boston Shuttle,42.451973,-71.069511,,,,,0,place-WR-0062,1,Melrose,West Wyoming Avenue,Hurd Street,3.0,[]
WR-0062-B2,,Wyoming Hill - Main St @ E Wyoming Ave,Wyoming Hill - Commuter Rail Outbound Shuttle - Main St @ E Wyoming Ave,,Outbound Shuttle,42.451734,-71.067239,,,,,0,place-WR-0062,1,Melrose,Main Street,East Wyoming Avenue,3.0,[]
WR-0062-B3,,Wyoming Hill - Main St @ W Wyoming Ave,Wyoming Hill - Commuter Rail Boston Shuttle - Main St @ W Wyoming Ave,,Boston Shuttle,42.451565,-71.067473,,,,,0,place-WR-0062,1,Melrose,Main Street,West Wyoming Avenue,3.0,[]
place-WR-0067,,Melrose/Cedar Park,,,,42.458768,-71.069789,CR-zone-1,"Cedar Park and West Emerson St, Melrose, MA 02176",https://www.mbta.com/stops/place-WR-0067,,1,,2,Melrose,,,,"""['WR-0067', 'WR-0067-01', 'WR-0067-02']"""
WR-0067-B0,,Melrose/Cedar Park - Essex St @ W Emerson St,Melrose/Cedar Park - Commuter Rail Outbound Shuttle - Essex St @ W Emerson St,,Outbound Shuttle,42.459271,-71.069361,,,,,0,place-WR-0067,1,Melrose,Tremont Street,West Emerson Street,3.0,[]
WR-0067-B1,,Melrose/Cedar Park - Tremont St @ W Emerson St,Melrose/Cedar Park - Commuter Rail Boston Shuttle - Tremont St @ W Emerson St,,Boston Shuttle,42.458806,-71.069395,,,,,0,place-WR-0067,1,Melrose,Tremont Street,West Emerson Street,3.0,[]
place-WR-0075,,Melrose Highlands,,,,42.469464,-71.068297,CR-zone-1,"497 Franklin St, Melrose, MA 02176",https://www.mbta.com/stops/place-WR-0075,,1,,1,Melrose,,,,"""['WR-0075', 'WR-0075-01', 'WR-0075-02']"""
WR-0075-B0,,Melrose Highlands - Franklin St @ Belmont St,Melrose Highlands - Commuter Rail Outbound Shuttle - Franklin St @ Belmont St,,Outbound Shuttle,42.468846,-71.068945,,,,,0,place-WR-0075,1,Melrose,Franklin Street,Belmont Street,3.0,[]
WR-0075-B1,,Melrose Highlands - Franklin St opp Marvin Rd,Melrose Highlands - Commuter Rail Boston Shuttle - Franklin St opp Marvin Rd,,Boston Shuttle,42.468743,-71.068381,,,,,0,place-WR-0075,1,Melrose,Franklin Street,Marvin Road,3.0,[]
WR-0075-B2,,Melrose Highlands - Nason Dr @ Belmont St,Melrose Highlands - Commuter Rail Shuttle - Nason Dr @ Belmont St,,Commuter Rail Shuttle,42.469786,-71.068366,,,,,0,place-WR-0075,1,Melrose,Nason Drive,Belmont Street,3.0,[]
place-WR-0085,,Greenwood,,,,42.483005,-71.067247,CR-zone-2,"907 Main St, Wakefield, MA 01880",https://www.mbta.com/stops/place-WR-0085,,1,,2,Wakefield,,,,"""['WR-0085', 'WR-0085-01', 'WR-0085-02']"""
WR-0085-B0,,Greenwood - Main St @ Walton Pl,Greenwood - Commuter Rail Outbound Shuttle - Main St @ Walton Pl,,Outbound Shuttle,42.484284,-71.067731,,,,,0,place-WR-0085,1,Wakefield,Main Street,Walton Place,3.0,[]
WR-0085-B1,,Greenwood - Main St @ Forest St,Greenwood - Commuter Rail Boston Shuttle - Main St @ Forest St,,Boston Shuttle,42.484184,-71.06779,,,,,0,place-WR-0085,1,Wakefield,Main Street,Forest Street,3.0,[]
place-WR-0099,,Wakefield,,,,42.502126,-71.075566,CR-zone-2,"225 North Ave, Wakefield, MA 01880",https://www.mbta.com/stops/place-WR-0099,,1,,2,Wakefield,,,,"""['WR-0099', 'WR-0099-01', 'WR-0099-02']"""
WR-0099-B0,,Wakefield - North Ave @ Chestnut St,Wakefield - Commuter Rail Outbound Shuttle - North Ave @ Chestnut St,,Outbound Shuttle,42.502715,-71.075737,,,,,0,place-WR-0099,1,Wakefield,North Avenue,Chestnut Street,3.0,"""['WR-0099-B1']"""
place-WR-0120,,Reading,,,,42.52221,-71.108294,CR-zone-2,"35 Lincoln St, Reading, MA 01867",https://www.mbta.com/stops/place-WR-0120,,1,,1,Reading,,,,"""['WR-0120-S']"""
WR-0120-B,,Reading - Lincoln St @ Prescott St,Reading - Commuter Rail Shuttle - Lincoln St @ Prescott St,,Commuter Rail Shuttle,42.521793,-71.107921,,,,,0,place-WR-0120,1,Reading,Lincoln Street,Prescott Street,3.0,[]
place-WR-0163,,North Wilmington,,,,42.569661,-71.159696,CR-zone-3,"370 Middlesex Ave, Wilmington, MA 01887",https://www.mbta.com/stops/place-WR-0163,,1,,2,Wilmington,,,,"""['WR-0163-S']"""
WR-0163-B0,,North Wilmington - 379 Middlesex Ave,North Wilmington - Commuter Rail Outbound Shuttle - 379 Middlesex Ave,,Outbound Shuttle,42.569361,-71.159119,,,,,0,place-WR-0163,1,Wilmington,Middlesex Avenue,,3.0,[]
WR-0163-B1,,North Wilmington - Opp 279 Middlesex Ave,North Wilmington - Commuter Rail Boston Shuttle - Opp 279 Middlesex Ave,,Boston Shuttle,42.569402,-71.159299,,,,,0,place-WR-0163,1,Wilmington,Middlesex Avenue,,3.0,[]
place-WR-0205,,Ballardvale,,,,42.627356,-71.159962,CR-zone-4,"195 Andover St, Andover, MA 01810",https://www.mbta.com/stops/place-WR-0205,,1,,1,Andover,,,,"""['WR-0205-02']"""
WR-0205-B0,,Ballardvale - Andover St opp Tewksbury St,Ballardvale - Commuter Rail Outbound Shuttle - Andover St opp Tewksbury St,,Outbound Shuttle,42.626948,-71.160238,,,,,0,place-WR-0205,1,Andover,Andover Street,Tewksbury Street,3.0,[]
WR-0205-B1,,Ballardvale - Andover St @ Tewksbury St,Ballardvale - Commuter Rail Boston Shuttle - Andover St @ Tewksbury St,,Boston Shuttle,42.626816,-71.160209,,,,,0,place-WR-0205,1,Andover,Andover Street,Tewksbury Street,3.0,[]
WR-0205-B2,,Ballardvale - Parking Lot,Ballardvale - Commuter Rail Shuttle - Parking Lot,,Commuter Rail Shuttle,42.627691,-71.159803,,,,,0,place-WR-0205,1,Andover,,,3.0,[]
place-WR-0228,,Andover,,,,42.658336,-71.144502,CR-zone-5,"17 Railroad St, Andover, MA 01810",https://www.mbta.com/stops/place-WR-0228,,1,,1,Andover,,,,"""['WR-0228-02']"""
WR-0228-B0,,Andover - Railroad St opp Amici Way,Andover - Commuter Rail Outbound Shuttle - Railroad St opp Amici Way,,Outbound Shuttle,42.65796,-71.144712,,,,,0,place-WR-0228,1,Andover,Railroad Street,Amici Way,3.0,[]
WR-0228-B1,,Andover - Railroad St @ Amici Way,Andover - Commuter Rail Boston Shuttle - Railroad St @ Amici Way,,Boston Shuttle,42.65817,-71.144893,,,,,0,place-WR-0228,1,Andover,Railroad Street,Amici Way,3.0,[]
place-WR-0264,,Lawrence,,,,42.701806,-71.15198,CR-zone-6,"S Union St and Merrimack St, Lawrence, MA 01843",https://www.mbta.com/stops/place-WR-0264,,1,,1,Lawrence,,,,"""['WR-0264-02']"""
WR-0264-B2,,Lawrence - Busway,Lawrence - Commuter Rail Shuttle - Busway,,Commuter Rail Shuttle,42.701961,-71.152442,,,,,0,place-WR-0264,1,Lawrence,,,3.0,[]
place-WR-0325,,Bradford,,,,42.766912,-71.088411,CR-zone-7,"10 Railroad Ave, Bradford, MA 01835",https://www.mbta.com/stops/place-WR-0325,,1,,1,Haverhill,,,,"""['WR-0325', 'WR-0325-01', 'WR-0325-02']"""
place-WR-0329,,Haverhill,,,,42.773474,-71.086237,CR-zone-7,"1 Washington Ave, Haverhill, MA 01832",https://www.mbta.com/stops/place-WR-0329,,1,,1,Haverhill,,,,"""['WR-0329', 'WR-0329-01', 'WR-0329-02']"""
place-alfcl,,Alewife,,,,42.39583,-71.141287,,"Alewife Brook Pkwy and Cambridge Park Dr, Cambridge, MA 02140",https://www.mbta.com/stops/place-alfcl,,1,,1,Cambridge,,,,"""['70061', 'Alewife-01', 'Alewife-02', 'node-349-bottom', 'node-349-top', 'node-350-bottom', 'node-350-top', 'node-351-bottom', 'node-351-top', 'node-352-bottom', 'node-352-top', 'node-353-bottom', 'node-353-top', 'node-354-bottom', 'node-354-top', 'node-355-bottom', 'node-355-top', 'node-356-bottom', 'node-356-top', 'node-357-bottom', 'node-357-top', 'node-813-bottom', 'node-813-top', 'node-814-concourse', 'node-814-fifth', 'node-814-fourth', 'node-814-ground', 'node-814-second', 'node-814-third', 'node-815-concourse', 'node-815-fifth', 'node-815-fourth', 'node-815-ground', 'node-815-second', 'node-815-third', 'node-961-bottom', 'node-961-top', 'node-alfcl-buswaynorthstairs-bottom', 'node-alfcl-buswaynorthstairs-top', 'node-alfcl-buswayramp-bottom', 'node-alfcl-buswayramp-landing', 'node-alfcl-buswayramp-top', 'node-alfcl-buswayrampstairs-top', 'node-alfcl-buswaysouthstairs-bottom', 'node-alfcl-buswaysouthstairs-top', 'node-alfcl-cambridgesidepickstairs-top', 'node-alfcl-cambridgesideramp-bottom', 'node-alfcl-cambridgesideramp-landing', 'node-alfcl-cambridgesideramp-top', 'node-alfcl-eaststairs-bottom', 'node-alfcl-eaststairs-top', 'node-alfcl-egaragestairs-fifth', 'node-alfcl-egaragestairs-fourth', 'node-alfcl-egaragestairs-second', 'node-alfcl-egaragestairs-third', 'node-alfcl-fifth', 'node-alfcl-fourth', 'node-alfcl-groundparkingstairs-bottom', 'node-alfcl-groundparkingstairs-top', 'node-alfcl-main-farepaid', 'node-alfcl-main-fareunpaid', 'node-alfcl-mainstairs-concourse', 'node-alfcl-mainstairs-ground', 'node-alfcl-mainstairs-second', 'node-alfcl-pick', 'node-alfcl-pickstairs-bottom', 'node-alfcl-pickstairs-top', 'node-alfcl-russell-farepaid', 'node-alfcl-russell-fareunpaid', 'node-alfcl-russellstairs-bottom', 'node-alfcl-russellstairs-top', 'node-alfcl-second', 'node-alfcl-steelplramp-bottom', 'node-alfcl-steelplramp-landing', 'node-alfcl-steelplramp-top', 'node-alfcl-steelplstairs-top', 'node-alfcl-third', 'node-alfcl-weststairs-bottom', 'node-alfcl-weststairs-top', 'node-alfcl-wgaragestairs-concourse', 'node-alfcl-wgaragestairs-fifth', 'node-alfcl-wgaragestairs-fourth', 'node-alfcl-wgaragestairs-ground', 'node-alfcl-wgaragestairs-second', 'node-alfcl-wgaragestairs-third']"""
door-alfcl-alewife,,Alewife - Alewife Path East,Alewife - Alewife Path East,,,42.395862,-71.140929,,,,level_ground,2,place-alfcl,1,Cambridge,,,,[]
door-alfcl-alewifes,,Alewife - Alewife Path South,Alewife - Alewife Path South,,,42.395753,-71.141256,,,,level_ground,2,place-alfcl,1,Cambridge,,,,[]
door-alfcl-cambridgepark,,"Alewife - Cambridgepark Dr, Alewife Brook Pkwy","Alewife - Cambridgepark Dr, Alewife Brook Pkwy",,,42.394893,-71.141516,,,,level_in_street,2,place-alfcl,1,Cambridge,,,,[]
door-alfcl-pathbusway,,"Alewife - Buses, Alewife Path","Alewife - Buses, Alewife Path",,,42.395643,-71.141275,,,,level_ground,2,place-alfcl,1,Cambridge,,,,[]
door-alfcl-russell,,Alewife - Russell Field,Alewife - Russell Field,,,42.39606,-71.139575,,,,level_ground,2,place-alfcl,1,Cambridge,,,,[]
door-alfcl-steel,,"Alewife - Steel Place, Alewife Brook Reserve","Alewife - Steel Place, Alewife Brook Reserve",,,42.395504,-71.142506,,,,level_in_street,2,place-alfcl,1,Cambridge,,,,[]
place-alsgr,,Allston Street,,,,42.348701,-71.137955,,"Allston St and Commonwealth Ave, Boston, MA 02134",https://www.mbta.com/stops/place-alsgr,,1,,2,Boston,,,,"""['70126', '70127']"""
place-amory,,Amory Street,,,,42.350992,-71.114748,,"Commonwealth Ave and Amory St, Boston, MA 02215",https://www.mbta.com/stops/place-amory,,1,,1,Boston,,,,"""['170140', '170141']"""
door-amory-ebamory,,Amory Street - Amory St,Amory Street - Amory St,,,42.350845,-71.113863,,,,level_in_street,2,place-amory,1,Boston,,,,"""['door-amory-wbamory']"""
door-amory-ebbuick,,"Amory Street - Buick St, Saint Paul St","Amory Street - Buick St, Saint Paul St",,,42.351054,-71.115613,,,,level_in_street,2,place-amory,1,Boston,,,,"""['door-amory-wbbuick']"""
place-andrw,,Andrew,,,,42.330154,-71.057655,,"Dorchester Ave and Southhampton St, South Boston, MA 02127",https://www.mbta.com/stops/place-andrw,,1,,1,Boston,,,,"""['70083', '70084', 'node-123-platform', 'node-124-platform', 'node-301-platform', 'node-872-lobby', 'node-879-lobby', 'node-879-platform', 'node-880-lobby', 'node-880-platform', 'node-andrw-dotstairs-lobby', 'node-andrw-farepaid', 'node-andrw-fareunpaid', 'node-andrw-ibramp-top', 'node-andrw-nbusstairs-lobby', 'node-andrw-nibstairs-lobby', 'node-andrw-nibstairs-platform', 'node-andrw-nlobbycenter', 'node-andrw-nobstairs-lobby', 'node-andrw-nobstairs-platform', 'node-andrw-obelstairs-lobby', 'node-andrw-sbusstairs-lobby', 'node-andrw-sibingress', 'node-andrw-sibstairs-platform', 'node-andrw-slobbycenter', 'node-andrw-sobstairs-lobby', 'node-andrw-sobstairs-platform']"""
door-andrw-busway,,Andrew - Buses,Andrew - Buses,,,42.330164,-71.057605,,,,level_ground,2,place-andrw,2,Boston,,,,[]
door-andrw-dotave,,"Andrew - Street, Buses","Andrew - Street, Buses",,,42.330017,-71.057309,,,,level_ground,2,place-andrw,2,Boston,,,,[]
door-andrw-elevator,,Andrew - Elevator,Andrew - Elevator,,,42.330017,-71.057684,,,,level_ground,2,place-andrw,1,Boston,,,,[]
door-andrw-exitonly,,Andrew - Southampton St,Andrew - Southampton St,,,42.330004,-71.057863,,,,level_ground,2,place-andrw,2,Boston,,,,[]
place-aport,,Airport,,,,42.374262,-71.030395,,"Transportation Way and Service Rd, Boston, MA 02128",https://www.mbta.com/stops/place-aport,,1,,1,Boston,,,,"""['70047', '70048', '7096', '7097', '9070047', '9170047', 'node-407-bridge', 'node-407-platform', 'node-408-bridge', 'node-408-platform', 'node-409-bridge', 'node-409-platform', 'node-410-bridge', 'node-410-platform', 'node-931-bridge', 'node-931-platform', 'node-932-bridge', 'node-932-platform', 'node-955-bridge', 'node-955-lobby', 'node-956-bridge', 'node-956-lobby', 'node-aport-bremen-farepaid', 'node-aport-bremen-fareunpaid', 'node-aport-bremenstairs-bridge', 'node-aport-bremenstairs-lobby', 'node-aport-buses-farepaid', 'node-aport-buses-fareunpaid', 'node-aport-buswaystairs-bridge', 'node-aport-buswaystairs-lobby', 'node-aport-ebpaidstairs-bridge', 'node-aport-ebpaidstairs-platform', 'node-aport-wbpaidstairs-bridge', 'node-aport-wbpaidstairs-platform']"""
door-aport-bremen,,Airport - Bremen St,Airport - Bremen St,,,42.374553,-71.030306,,,,level_ground,2,place-aport,1,Boston,,,,[]
door-aport-buses,,"Airport - Buses, Airport","Airport - Buses, Airport",,,42.373984,-71.030031,,,,level_ground,2,place-aport,1,Boston,,,,[]
place-aqucl,,Aquarium,,,,42.359784,-71.051652,,"Atlantic Ave and State St, Boston, MA 02120",https://www.mbta.com/stops/place-aqucl,,1,,1,Boston,,,,"""['70043', '70044', 'node-394-lobby', 'node-394-platform', 'node-395-lobby', 'node-395-platform', 'node-396-landing', 'node-396-lobby', 'node-397-landing', 'node-397-street', 'node-405-lobby', 'node-405-street', 'node-406-lobby', 'node-406-street', 'node-913-lobby', 'node-913-platform', 'node-914-lobby', 'node-914-platform', 'node-915-lobby', 'node-923-lobby', 'node-923-platform', 'node-924-lobby', 'node-924-platform', 'node-925-lobby', 'node-aqucl-atlanticstairs-lobby', 'node-aqucl-atlanticstairs-street', 'node-aqucl-atlfarepaid', 'node-aqucl-atlfareunpaid', 'node-aqucl-ebatlanticstairs-lobby', 'node-aqucl-ebatlanticstairs-platform', 'node-aqucl-ebstatestairs-lobby', 'node-aqucl-ebstatestairs-platform', 'node-aqucl-nstatestairs-landing', 'node-aqucl-nstatestairs-landingtop', 'node-aqucl-nstatestairs-lobby', 'node-aqucl-nstatestairs-street', 'node-aqucl-sstatestairs-lobby', 'node-aqucl-statefarepaid', 'node-aqucl-statefareunpaid', 'node-aqucl-wbatlanticstairs-lobby', 'node-aqucl-wbatlanticstairs-platform', 'node-aqucl-wbstatestairs-lobby', 'node-aqucl-wbstatestairs-platform']"""
door-aqucl-atlantic,,Aquarium - Waterfront and New England Aquarium,Aquarium - Waterfront and New England Aquarium,,,42.359791,-71.051631,,,,level_in_street,2,place-aqucl,2,Boston,,,,"""['door-aqucl-atlanticelev']"""
door-aqucl-mcknorth,,Aquarium - State St (North),Aquarium - State St (North),,,42.359534,-71.053183,,,,level_in_street,2,place-aqucl,2,Boston,,,,[]
door-aqucl-mcksouth,,Aquarium - State St (South),Aquarium - State St (South),,,42.359331,-71.053039,,,,level_in_street,2,place-aqucl,1,Boston,,,,[]
door-armnl-arlte,,Arlington - Arlington St (East),Arlington - Arlington St (East),,,42.351738,-71.070509,,,,level_in_street,2,place-armnl,2,Boston,,,,[]
door-armnl-arltw,,Arlington - Arlington St (West),Arlington - Arlington St (West),,,42.351694,-71.070686,,,,level_in_street,2,place-armnl,2,Boston,,,,[]
door-armnl-elevator,,"Arlington - Elevator, Boylston St","Arlington - Elevator, Boylston St",,,42.351796,-71.07128,,,,level_in_street,2,place-armnl,1,Boston,,,,[]
door-armnl-garden,,Arlington - Public Garden ,Arlington - Public Garden ,,,42.352,-71.070864,,,,level_in_street,2,place-armnl,2,Boston,,,,[]
place-asmnl,,Ashmont,,,,42.28452,-71.063777,,"Dorchester Ave and Ashmont St, Boston, MA 02124",https://www.mbta.com/stops/place-asmnl,,1,,1,Boston,,,,"""['70093', '70094', '70261', 'node-437-lobby', 'node-437-platform', 'node-438-lobby', 'node-438-platform', 'node-968-lobby', 'node-968-platform', 'node-969-lobby', 'node-969-platform', 'node-970-lobby', 'node-970-platform', 'node-asmnl-bealeramp', 'node-asmnl-mtpfarepaid', 'node-asmnl-mtpfareunpaid', 'node-asmnl-mtpnbstair-lobby', 'node-asmnl-mtpnbstair-platform', 'node-asmnl-peafarepaid', 'node-asmnl-peafareunpaid', 'node-asmnl-peanbstair-lobby', 'node-asmnl-peanbstair-platform', 'node-asmnl-peasbstair-lobby', 'node-asmnl-peasbstair-platform', 'node-asmnl-radfarepaid', 'node-asmnl-radfareunpaid', 'node-asmnl-radfordramp', 'node-asmnl-rdexstair-lobby', 'node-asmnl-rdexstair-platform']"""
door-asmnl-beale,,Ashmont - Beale St,Ashmont - Beale St,,,42.283765,-71.063468,,,,level_-1.5_in_street,2,place-asmnl,1,Boston,,,,[]
door-asmnl-matpn,,Ashmont - Mattapan Line (Lobby),Ashmont - Mattapan Line (Lobby),,,42.283928,-71.063598,,,,level_ground,2,place-asmnl,1,Boston,,,,[]
door-asmnl-peabody,,Ashmont - Peabody Square,Ashmont - Peabody Square,,,42.285204,-71.064223,,,,level_in_street,2,place-asmnl,1,Boston,,,,[]
door-asmnl-radford,,Ashmont - Radford Lane,Ashmont - Radford Lane,,,42.283587,-71.062983,,,,level_-1.5_in_street,2,place-asmnl,1,Boston,,,,[]
door-asmnl-rdexits,,Ashmont - Buses,Ashmont - Buses,,,42.284449,-71.063865,,,,level_ground,2,place-asmnl,2,Boston,,,,[]
place-astao,,Assembly,,,,42.392811,-71.077257,,"499 Foley St, Somerville, MA 02145",https://www.mbta.com/stops/place-astao,,1,,1,Somerville,,,,"""['70278', '70279', 'node-astao-442-ground', 'node-astao-442-lobby', 'node-astao-443-lobby', 'node-astao-443-platform', 'node-astao-716-ground', 'node-astao-716-lobby', 'node-astao-717-lobby', 'node-astao-717-platform', 'node-astao-718-ground', 'node-astao-718-lobby', 'node-astao-719-lobby', 'node-astao-719-platform', 'node-astao-fol-farepaid', 'node-astao-fol-fareunpaid', 'node-astao-foldoorstair-ground', 'node-astao-foldoorstair-lobby', 'node-astao-folplatstair-lobby', 'node-astao-folplatstair-platform', 'node-astao-rev-farepaid', 'node-astao-rev-fareunpaid', 'node-astao-revdoorstair-ground', 'node-astao-revdoorstair-lobby', 'node-astao-revplatstair-lobby', 'node-astao-revplatstair-platform']"""
door-astao-foley,,Assembly - Foley St,Assembly - Foley St,,,42.393312,-71.077661,,,,level_in_street,2,place-astao,1,Somerville,,,,[]
door-astao-revol,,Assembly - Revolution Dr,Assembly - Revolution Dr,,,42.392164,-71.077559,,,,level_in_street,2,place-astao,1,Somerville,,,,[]
place-babck,,Babcock Street,,,,42.351616,-71.119924,,"Commonwealth Ave and Babcock St, Boston, MA 02215",https://www.mbta.com/stops/place-babck,,1,,1,Boston,,,,"""['170136', '170137']"""
door-babck-ebagganis,,"Babcock Street - Harry Agganis Way, Pleasant St","Babcock Street - Harry Agganis Way, Pleasant St",,,42.351424,-71.118712,,,,level_in_street,2,place-babck,1,Boston,,,,"""['door-babck-wbagganis']"""
door-babck-ebbabcock,,Babcock Street - Babcock St,Babcock Street - Babcock St,,,42.351719,-71.121123,,,,level_in_street,2,place-babck,1,Boston,,,,"""['door-babck-wbbabcock']"""
place-balsq,,Ball Square,,,,42.399889,-71.111003,,"646 Boston Ave, Somerville, MA 02144",https://www.mbta.com/stops/place-balsq,,1,,1,Medford,,,,"""['70509', '70510', 'node-769-bottom', 'node-769-top', 'node-balsq-ramp-bottom', 'node-balsq-ramp-top', 'node-balsq-stairs-bottom', 'node-balsq-stairs-top']"""
door-balsq-boston,,Ball Square - Boston Ave,Ball Square - Boston Ave,,,42.399891,-71.111125,,,,level_ground,2,place-balsq,1,Medford,,,,[]
door-balsq-broadway,,Ball Square - Broadway,Ball Square - Broadway,,,42.399533,-71.110737,,,,level_1_in_street,2,place-balsq,1,Medford,,,,[]
place-bbsta,,Back Bay,,,,42.34735,-71.075727,CR-zone-1A,"145 Dartmouth St Boston, MA 02116",https://www.mbta.com/stops/place-bbsta,,1,,1,Boston,,,,"""['70014', '70015', 'NEC-2276', 'NEC-2276-01', 'NEC-2276-02', 'NEC-2276-03', 'NEC-2276-B', 'WML-0012-05', 'WML-0012-07', 'node-140-lobby', 'node-140-platform', 'node-141-lobby', 'node-141-platform', 'node-142-lobby', 'node-142-platform', 'node-143-lobby', 'node-143-platform', 'node-144-lobby', 'node-144-platform', 'node-853-lobby', 'node-853-platform', 'node-854-lobby', 'node-854-platform', 'node-855-lobby', 'node-855-platform', 'node-856-lobby', 'node-856-platform', 'node-bbsta-13clarexit-bottom', 'node-bbsta-13clarexit-farepaid', 'node-bbsta-13clarexit-fareunpaid', 'node-bbsta-13stairs-lobby', 'node-bbsta-13stairs-platform', 'node-bbsta-2clarexit-bottom', 'node-bbsta-2clarexit-farepaid', 'node-bbsta-2clarexit-fareunpaid', 'node-bbsta-2stairs-lobby', 'node-bbsta-2stairs-platform', 'node-bbsta-clar-farepaid', 'node-bbsta-clar-fareunpaid', 'node-bbsta-dartexit-farepaid', 'node-bbsta-dartexit-fareunpaid', 'node-bbsta-dartexit-platform', 'node-bbsta-e57stairs-lobby', 'node-bbsta-e57stairs-platform', 'node-bbsta-lower-farepaid', 'node-bbsta-lower-fareunpaid', 'node-bbsta-olclarexit-bottom', 'node-bbsta-olestairs-lobby', 'node-bbsta-olestairs-platform', 'node-bbsta-olwstairs-lobby', 'node-bbsta-olwstairs-platform', 'node-bbsta-upassestairs-bottom', 'node-bbsta-upassestairs-top', 'node-bbsta-upassmezstairs-top', 'node-bbsta-upasswstairs-bottom', 'node-bbsta-upper-farepaid', 'node-bbsta-upper-fareunpaid', 'node-bbsta-w57stairs-lobby', 'node-bbsta-w57stairs-platform']"""
door-bbsta-buswayn,,"Back Bay - Clarendon St, Buses (North)","Back Bay - Clarendon St, Buses (North)",,,42.347654,-71.074699,,,,level_in_street,2,place-bbsta,1,Boston,,,,[]
door-bbsta-busways,,"Back Bay - Clarendon St, Buses (South)","Back Bay - Clarendon St, Buses (South)",,,42.347445,-71.07467,,,,level_in_street,2,place-bbsta,1,Boston,,,,[]
door-bbsta-clarcolum,,"Back Bay - Clarendon St, Columbus Ave","Back Bay - Clarendon St, Columbus Ave",,,42.34754,-71.07341,,,,level_in_street,2,place-bbsta,2,Boston,,,,[]
door-bbsta-clarendon1,,Back Bay - Clarendon St (Tracks 1 and 3),Back Bay - Clarendon St (Tracks 1 and 3),,,42.347552,-71.072937,,,,level_in_street,2,place-bbsta,2,Boston,,,,[]
door-bbsta-clarendon2,,Back Bay - Clarendon St (Track 2),Back Bay - Clarendon St (Track 2),,,42.347471,-71.07305,,,,level_in_street,2,place-bbsta,2,Boston,,,,[]
door-bbsta-dartmn,,Back Bay - Dartmouth St (North),Back Bay - Dartmouth St (North),,,42.347584,-71.0759,,,,level_in_street,2,place-bbsta,1,Boston,,,,[]
door-bbsta-dartms,,Back Bay - Dartmouth St (South),Back Bay - Dartmouth St (South),,,42.347348,-71.075791,,,,level_in_street,2,place-bbsta,1,Boston,,,,[]
door-bbsta-dartmw,,Back Bay - Dartmouth St (Tracks 5 and 7),Back Bay - Dartmouth St (Tracks 5 and 7),,,42.347572,-71.076228,,,,level_in_street,2,place-bbsta,2,Boston,,,,[]
door-bbsta-garage,,Back Bay - Garage,Back Bay - Garage,,,42.347684,-71.075054,,,,level_ground,2,place-bbsta,1,Boston,,,,[]
door-bbsta-underpass,,Back Bay - Underpass to Copley Place,Back Bay - Underpass to Copley Place,,,42.347273,-71.076565,,,,level_ground,2,place-bbsta,2,Boston,,,,[]
place-bckhl,,Back of the Hill,,,,42.330139,-71.111313,,"100 South Huntington Ave, Boston, MA 02130",https://www.mbta.com/stops/place-bckhl,,1,,2,Boston,,,,"""['70257', '70258']"""
place-bcnfd,,Beaconsfield,,,,42.335765,-71.140455,,"124 Beaconsfield Rd, Brookline, MA 02445",https://www.mbta.com/stops/place-bcnfd,,1,,2,Brookline,,,,"""['70176', '70177', 'node-bcnfd-stairs-platform']"""
door-bcnfd-bcnfield,,Beaconsfield - Beaconsfield Rd,Beaconsfield - Beaconsfield Rd,,,42.335788,-71.13993,,,,level_ground,2,place-bcnfd,1,Brookline,,,,[]
door-bcnfd-clark,,Beaconsfield - Clark Rd,Beaconsfield - Clark Rd,,,42.335555,-71.13997,,,,level_ground,2,place-bcnfd,1,Brookline,,,,[]
door-bcnfd-dean,,"Beaconsfield - Dean Rd, Beacon St","Beaconsfield - Dean Rd, Beacon St",,,42.336053,-71.141404,,,,level_1_in_street,2,place-bcnfd,2,Brookline,,,,[]
door-bcnfd-lot,,Beaconsfield - Parking Lot,Beaconsfield - Parking Lot,,,42.335845,-71.14042,,,,level_ground,2,place-bcnfd,2,Brookline,,,,[]
place-belsq,,Bellingham Square,,,,42.395438,-71.033884,,,https://www.mbta.com/stops/place-belsq,,1,,1,Chelsea,,,,"""['74632', '74633', 'node-belsq-crosswalk-chelsea', 'node-belsq-crosswalk-southsta', 'node-belsq-ramp-platform']"""
ER-0042-B,,Chelsea,Chelsea - Commuter Rail Shuttle,,Commuter Rail Shuttle,42.395781,-71.034536,,,,,0,place-belsq,1,Chelsea,Arlington Street,Sixth Street,3.0,"""['place-chels', '74630', '74631', 'ER-0042', 'ER-0042-01', 'ER-0042-02', 'node-chels-everettnorth-bottom', 'node-chels-everettnorth-top', 'node-chels-everettout-bottom', 'node-chels-everettout-top', 'node-chels-thirdnorth-bottom', 'node-chels-thirdnorth-top', 'node-chels-thirdout-bottom', 'node-chels-thirdout-top']"""
door-belsq-arlington,,Bellingham Square - Arlington Street,Bellingham Square - Arlington Street,,,42.395667,-71.034627,,,,level_in_street,2,place-belsq,1,Chelsea,,,,[]
door-belsq-sixth,,Bellingham Square - Sixth Street,Bellingham Square - Sixth Street,,,42.395527,-71.034574,,,,level_in_street,2,place-belsq,1,Chelsea,,,,[]
door-belsq-washington,,Bellingham Square - Washington Avenue,Bellingham Square - Washington Avenue,,,42.395247,-71.033173,,,,level_1_in_street,2,place-belsq,1,Chelsea,,,,[]
place-bland,,Blandford Street,,,,42.349293,-71.100258,,"Commonwealth Ave and Blandford Mall, Boston, MA 02215",https://www.mbta.com/stops/place-bland,,1,,2,Boston,,,,"""['70148', '70149']"""
place-bmmnl,,Beachmont,,,,42.397542,-70.992319,,"630 Winthrop Ave, Revere, MA 02151",https://www.mbta.com/stops/place-bmmnl,,1,,1,Revere,,,,"""['70055', '70056', 'node-378-lobby', 'node-378-platform', 'node-379-lobby', 'node-379-platform', 'node-886-lobby', 'node-886-platform', 'node-887-lobby', 'node-887-platform', 'node-bmmnl-378stair-lobby', 'node-bmmnl-378stair-platform', 'node-bmmnl-379stair-lobby', 'node-bmmnl-379stair-platform', 'node-bmmnl-farepaid', 'node-bmmnl-fareunpaid']"""
door-bmmnl-main,,Beachmont - Winthrop Ave,Beachmont - Winthrop Ave,,,42.397551,-70.992358,,,,level_in_street,2,place-bmmnl,1,Revere,,,,[]
place-bomnl,,Bowdoin,,,,42.361365,-71.062037,,"Cambridge St and New Chardon St, Boston, MA 02114",https://www.mbta.com/stops/place-bomnl,,1,,2,Boston,,,,"""['70038', '70838', 'node-125-entrance', 'node-125-lobby', 'node-bomnl-entstair', 'node-bomnl-farepaid', 'node-bomnl-fareunpaid', 'node-bomnl-lobstair-entrance', 'node-bomnl-lobstair-lobby', 'node-bomnl-pstair-lobby', 'node-bomnl-pstair-platform', 'node-bomnl-ramp-lobby', 'node-bomnl-ramp-platform']"""
door-bomnl-main,,Bowdoin - Cambridge St,Bowdoin - Cambridge St,,,42.36135,-71.061971,,,,level_in_street,2,place-bomnl,2,Boston,,,,[]
place-boxdt,,Box District,,,,42.394049,-71.028365,,,https://www.mbta.com/stops/place-boxdt,,1,,1,Chelsea,,,,"""['74634', '74635']"""
place-boyls,,Boylston,,,,42.35302,-71.06459,,"Boylston St and Tremont St, Boston, MA",https://www.mbta.com/stops/place-boyls,,1,,2,Boston,,,,"""['70158', '70159', 'node-boyls-in-farepaid', 'node-boyls-in-fareunpaid', 'node-boyls-instair-platform', 'node-boyls-out-farepaid', 'node-boyls-out-fareunpaid', 'node-boyls-outstair-platform']"""
door-boyls-inbound,,"Boylston - Boston Common, Street","Boylston - Boston Common, Street",,,42.352531,-71.064685,,,,level_in_street,2,place-boyls,2,Boston,,,,"""['door-boyls-outbound']"""
place-brdwy,,Broadway,,,,42.342622,-71.056967,,"Dorchester Ave and Broadway, Boston, MA",https://www.mbta.com/stops/place-brdwy,,1,,1,Boston,,,,"""['70081', '70082', 'node-367-lobby', 'node-367-platform', 'node-372-lobby', 'node-867-lobby', 'node-867-platform', 'node-868-lobby', 'node-brdwy-farepaid', 'node-brdwy-fareunpaid', 'node-brdwy-mainstairs-lobby', 'node-brdwy-platstairs-lobby', 'node-brdwy-platstairs-platform', 'node-brdwy-travelerstairs-lobby']"""
door-brdwy-main,,Broadway - Broadway,Broadway - Broadway,,,42.34256,-71.056944,,,,level_in_street,2,place-brdwy,1,Boston,,,,[]
door-brdwy-traveler,,Broadway - Traveler St,Broadway - Traveler St,,,42.342962,-71.057389,,,,level_in_street,2,place-brdwy,2,Boston,,,,[]
door-brkhl-bhs,,Brookline Hills - Tappan St (West),Brookline Hills - Tappan St (West),,,42.331446,-71.127064,,,,level_in_street,2,place-brkhl,1,Brookline,,,,[]
door-brkhl-cypress,,Brookline Hills - Tappan St (East),Brookline Hills - Tappan St (East),,,42.331375,-71.126612,,,,level_in_street,2,place-brkhl,1,Brookline,,,,[]
place-brmnl,,Brigham Circle,,,,42.334229,-71.104609,,"Huntington Ave and Francis St, Boston, MA",https://www.mbta.com/stops/place-brmnl,,1,,1,Boston,,,,"""['70249', '70250']"""
place-brntn,,Braintree,,,,42.207854,-71.001138,CR-zone-2,"197 Ivory St, Braintree, MA 02184",https://www.mbta.com/stops/place-brntn,,1,,1,Braintree,,,,"""['70105', 'Braintree-01', 'Braintree-02', 'MM-0109', 'MM-0109-CS', 'MM-0109-S', 'node-333-bottom', 'node-333-top', 'node-334-lobby', 'node-334-platform', 'node-335-lobby', 'node-335-platform', 'node-811-lobby', 'node-811-platform', 'node-brntn-crramp-bottom', 'node-brntn-crramp-top', 'node-brntn-crstairs-bottom', 'node-brntn-crstairs-top', 'node-brntn-farepaid', 'node-brntn-fareunpaid', 'node-brntn-nplatstairs-lobby', 'node-brntn-nplatstairs-platform', 'node-brntn-parking', 'node-brntn-splatstairs-lobby', 'node-brntn-splatstairs-platform']"""
door-brntn-busway,,"Braintree - Garage, Buses, Ivory St","Braintree - Garage, Buses, Ivory St",,,42.207352,-71.001361,,,,level_ground,2,place-brntn,1,Braintree,,,,[]
door-brntn-faregates,,"Braintree - Garage, Buses, Union St","Braintree - Garage, Buses, Union St",,,42.207528,-71.001339,,,,level_ground,2,place-brntn,1,Braintree,,,,[]
place-bucen,,Boston University Central,,,,42.350082,-71.106865,,"Commonwealth Ave and Marsh Chapel, Boston, MA 02215",https://www.mbta.com/stops/place-bucen,,1,,1,Boston,,,,"""['70144', '70145']"""
place-buest,,Boston University East,,,,42.349735,-71.103889,,"Commonwealth Ave and Granby St, Boston, MA 02215",https://www.mbta.com/stops/place-buest,,1,,1,Boston,,,,"""['70146', '70147']"""
place-butlr,,Butler,,,,42.272429,-71.062519,,"Butler St and Branchfield St, Dorchester, MA 02124",https://www.mbta.com/stops/place-butlr,,1,,1,Boston,,,,"""['70265', '70266', 'node-butlr-ramp-platform']"""
door-butlr-bearse,,"Butler - Bearse Ave, Butler St","Butler - Bearse Ave, Butler St",,,42.272115,-71.062677,,,,level_0.5_ground,2,place-butlr,1,Boston,,,,[]
door-butlr-branchfield,,"Butler - Branchfield St, Butler St","Butler - Branchfield St, Butler St",,,42.272469,-71.062579,,,,level_ground,2,place-butlr,1,Boston,,,,[]
place-bvmnl,,Brookline Village,,,,42.332608,-71.116857,,"31 Station St, Brookline, MA 02445",https://www.mbta.com/stops/place-bvmnl,,1,,1,Brookline,,,,"""['70180', '70181', 'node-bvmnl-stairs-platform']"""
door-bvmnl-boylston,,"Brookline Village - Buses, Route 9","Brookline Village - Buses, Route 9",,,42.33266,-71.116542,,,,level_in_street,2,place-bvmnl,1,Brookline,,,,[]
door-bvmnl-kent,,"Brookline Village - Station St, Kent St","Brookline Village - Station St, Kent St",,,42.332818,-71.11661,,,,level_in_street,2,place-bvmnl,1,Brookline,,,,[]
door-bvmnl-place,,Brookline Village - 10 Brookline Place West,Brookline Village - 10 Brookline Place West,,,42.332177,-71.11744,,,,level_1_ground,2,place-bvmnl,2,Brookline,,,,[]
door-bvmnl-washington,,"Brookline Village - Station St, Washington St","Brookline Village - Station St, Washington St",,,42.332552,-71.117214,,,,level_in_street,2,place-bvmnl,1,Brookline,,,,[]
place-capst,,Capen Street,,,,42.267563,-71.087338,,"50 Capen St, Milton, MA 02186",https://www.mbta.com/stops/place-capst,,1,,1,Milton,,,,"""['70273', '70274']"""
door-capst-ashmont,,Capen Street - Capen St (East),Capen Street - Capen St (East),,,42.267529,-71.087266,,,,level_in_street,2,place-capst,1,Milton,,,,[]
door-capst-mattapan,,Capen Street - Capen St (West),Capen Street - Capen St (West),,,42.267595,-71.087241,,,,level_in_street,2,place-capst,1,Milton,,,,[]
place-ccmnl,,Community College,,,,42.373622,-71.069533,,"Austin St and Rutherford Ave, Charlestown, MA",https://www.mbta.com/stops/place-ccmnl,,1,,1,Boston,,,,"""['70028', '70029', 'node-ccmnl-305-lobby', 'node-ccmnl-305-platform', 'node-ccmnl-933-lobby', 'node-ccmnl-933-platform', 'node-ccmnl-farepaid', 'node-ccmnl-fareunpaid', 'node-ccmnl-lobby', 'node-ccmnl-stairs-lobby', 'node-ccmnl-stairs-platform']"""
door-ccmnl-main,,"Community College - Community College, Rutherford Ave","Community College - Community College, Rutherford Ave",,,42.373719,-71.0696,,,,level_in_street,2,place-ccmnl,1,Boston,,,,[]
place-cedgr,,Cedar Grove,,,,42.279629,-71.060394,,"Fellsway St and Milton St, Dorchester, MA 02124",https://www.mbta.com/stops/place-cedgr,,1,,1,Boston,,,,"""['70263', '70264']"""
door-cedgr-fellsway,,Cedar Grove - Fellsway St,Cedar Grove - Fellsway St,,,42.27971,-71.06036,,,,level_in_street,2,place-cedgr,1,Boston,,,,[]
door-cedgr-hillsdale,,Cedar Grove - Hillsdale St,Cedar Grove - Hillsdale St,,,42.279969,-71.061122,,,,level_in_street,2,place-cedgr,1,Boston,,,,[]
place-cenav,,Central Avenue,,,,42.270027,-71.073444,,"23 Central Ave, Milton, MA 02186",https://www.mbta.com/stops/place-cenav,,1,,1,Milton,,,,"""['70269', '70270']"""
door-cenav-ashmont,,Central Avenue - Central Ave (South),Central Avenue - Central Ave (South),,,42.269991,-71.073299,,,,level_in_street,2,place-cenav,1,Milton,,,,[]
door-cenav-mattapan,,"Central Avenue - Central Ave (North), Neponset Trail","Central Avenue - Central Ave (North), Neponset Trail",,,42.270069,-71.073327,,,,level_in_street,2,place-cenav,1,Milton,,,,[]
door-chels-crnorthever,,"Chelsea - Everett Ave, Silver Line - SL3","Chelsea - Everett Ave, Silver Line - SL3",,,42.396899,-71.04015,,,,level_in_street,2,place-chels,1,Chelsea,,,,[]
door-chels-crnorththird,,Chelsea - Third St,Chelsea - Third St,,,42.397823,-71.044761,,,,level_in_street,2,place-chels,1,Chelsea,,,,"""['door-chels-croutthird']"""
door-chels-mall,,"Chelsea - Buses 112, 114","Chelsea - Buses 112, 114",,,42.396716,-71.040931,,,,level_in_street,2,place-chels,1,Chelsea,,,,[]
door-chels-sldropoff,,Chelsea - Everett Ave,Chelsea - Everett Ave,,,42.396771,-71.040123,,,,level_in_street,2,place-chels,1,Chelsea,,,,"""['door-chels-slsstat']"""
place-chhil,,Chestnut Hill,,,,42.326753,-71.164699,,"Hammond St and Chestnut Hill Rd, Newton, MA 02467",https://www.mbta.com/stops/place-chhil,,1,,2,Newton,,,,"""['70172', '70173', 'node-chhil-parkstairs-platform', 'node-chhil-roadstairs-platform']"""
door-chhil-bc,,"Chestnut Hill - Shopping Center, Boston College","Chestnut Hill - Shopping Center, Boston College",,,42.326808,-71.165473,,,,level_1_in_street,2,place-chhil,2,Newton,,,,[]
door-chhil-museum,,"Chestnut Hill - Brimmer and May, Longyear Museum","Chestnut Hill - Brimmer and May, Longyear Museum",,,42.326736,-71.164175,,,,level_ground,2,place-chhil,1,Newton,,,,[]
door-chhil-parke,,Chestnut Hill - Parking Lot Access (East),Chestnut Hill - Parking Lot Access (East),,,42.326909,-71.164347,,,,level_ground,2,place-chhil,1,Newton,,,,[]
door-chhil-parkw,,Chestnut Hill - Parking Lot Access (West),Chestnut Hill - Parking Lot Access (West),,,42.326831,-71.16484,,,,level_ground,2,place-chhil,2,Newton,,,,[]
place-chill,,Chestnut Hill Avenue,,,,42.338169,-71.15316,,"Commonwealth Ave and Chestnut Hill Ave, Boston, MA",https://www.mbta.com/stops/place-chill,,1,,2,Boston,,,,"""['70112', '70113']"""
place-chmnl,,Charles/MGH,,,,42.361166,-71.070628,,"Cambridge St and Charles St, Boston, MA",https://www.mbta.com/stops/place-chmnl,,1,,1,Boston,,,,"""['70073', '70074', 'node-425-lobby', 'node-425-platform', 'node-426-lobby', 'node-426-platform', 'node-951-lobby', 'node-951-platform', 'node-952-lobby', 'node-952-platform', 'node-chmnl-farepaid', 'node-chmnl-fareunpaid', 'node-chmnl-nbstairs-lobby', 'node-chmnl-nbstairs-platform', 'node-chmnl-sbstairs-lobby', 'node-chmnl-sbstairs-platform']"""
door-chmnl-main,,"Charles/MGH - Beacon Hill, Esplanade, Hospitals","Charles/MGH - Beacon Hill, Esplanade, Hospitals",,,42.361117,-71.07057,,,,level_in_street,2,place-chmnl,1,Boston,,,,[]
place-chncl,,Chinatown,,,,42.352547,-71.062752,,"Washington St and Boylston St, Boston, MA",https://www.mbta.com/stops/place-chncl,,1,,1,Boston,,,,"""['70018', '70019', 'node-366-landing', 'node-366-lobby', 'node-377-landing', 'node-377-lobby', 'node-876-lobby', 'node-922-lobby', 'node-chncl-fhfarepaid', 'node-chncl-fhfareunpaid', 'node-chncl-fhlower-landing', 'node-chncl-fhlower-lobby', 'node-chncl-fhupper-landing', 'node-chncl-ogfarepaid', 'node-chncl-ogfareunpaid', 'node-chncl-oglower-landing', 'node-chncl-oglower-lobby', 'node-chncl-ogonlystair-lobby', 'node-chncl-ogupper-landing']"""
door-chncl-fhelevator,,"Chinatown - Washington St, Essex St","Chinatown - Washington St, Essex St",,,42.352405,-71.063087,,,,level_in_street,2,place-chncl,1,Boston,,,,"""['door-chncl-foresthills', 'door-chncl-ogessex']"""
door-chncl-ogelevator,,Chinatown - Elevator (Oak Grove),Chinatown - Elevator (Oak Grove),,,42.352628,-71.062443,,,,level_in_street,2,place-chncl,1,Boston,,,,[]
place-chswk,,Chiswick Road,,,,42.340805,-71.150711,,"Commonwealth Ave and Chiswick Rd, Boston, MA",https://www.mbta.com/stops/place-chswk,,1,,2,Boston,,,,"""['70114', '70115']"""
place-cntsq,,Central,,,,42.365486,-71.103802,,"Massachusetts Ave and Prospect St, Cambridge, MA 02139",https://www.mbta.com/stops/place-cntsq,,1,,1,Cambridge,,,,"""['70069', '70070', 'node-cntsq-359-platform', 'node-cntsq-360-platform', 'node-cntsq-860-platform', 'node-cntsq-861-platform', 'node-cntsq-essexstair-farepaid', 'node-cntsq-essexstair-fareunpaid', 'node-cntsq-essexstair-platform', 'node-cntsq-ibstair-farepaid', 'node-cntsq-ibstair-fareunpaid', 'node-cntsq-ibstair-platform', 'node-cntsq-obstair-farepaid', 'node-cntsq-obstair-fareunpaid', 'node-cntsq-obstair-platform', 'node-cntsq-pearlstair-farepaid', 'node-cntsq-pearlstair-fareunpaid', 'node-cntsq-pearlstair-platform', 'node-cntsq-prospectstair-farepaid', 'node-cntsq-prospectstair-fareunpaid', 'node-cntsq-prospectstair-platform', 'node-cntsq-westernstair-farepaid', 'node-cntsq-westernstair-fareunpaid', 'node-cntsq-westernstair-platform']"""
door-cntsq-essex,,Central - Essex St,Central - Essex St,,,42.364991,-71.102811,,,,level_in_street,2,place-cntsq,2,Cambridge,,,,[]
door-cntsq-ibmass,,Central - Mass Ave,Central - Mass Ave,,,42.36519,-71.103557,,,,level_in_street,2,place-cntsq,1,Cambridge,,,,"""['door-cntsq-obmass']"""
door-cntsq-pearl,,Central - Pearl St,Central - Pearl St,,,42.364831,-71.102989,,,,level_in_street,2,place-cntsq,2,Cambridge,,,,[]
door-cntsq-prospect,,Central - Prospect St,Central - Prospect St,,,42.365778,-71.104131,,,,level_in_street,2,place-cntsq,2,Cambridge,,,,[]
door-cntsq-western,,Central - Western Ave,Central - Western Ave,,,42.365635,-71.104304,,,,level_in_street,2,place-cntsq,2,Cambridge,,,,[]
place-coecl,,Copley,,,,42.349974,-71.077447,,"Boylston St and Dartmouth St, Boston, MA",https://www.mbta.com/stops/place-coecl,,1,,1,Boston,,,,"""['70154', '70155', 'node-coecl-439-platform', 'node-coecl-976-platform', 'node-coecl-977-platform', 'node-coecl-bplstair-platform', 'node-coecl-churchstair-platform', 'node-coecl-eaststair-platform', 'node-coecl-ebfarepaid', 'node-coecl-ebfareunpaid', 'node-coecl-wbfarepaid', 'node-coecl-wbfareunpaid']"""
door-coecl-bpl,,Copley - Boylston St,Copley - Boylston St,,,42.349799,-71.078026,,,,level_in_street,2,place-coecl,2,Boston,,,,[]
door-coecl-church,,"Copley - Dartmouth St, Old South Church","Copley - Dartmouth St, Old South Church",,,42.350194,-71.077551,,,,level_in_street,2,place-coecl,1,Boston,,,,[]
door-coecl-east,,Copley - Dartmouth St (East),Copley - Dartmouth St (East),,,42.350312,-71.077382,,,,level_in_street,2,place-coecl,2,Boston,,,,[]
place-conrd,,Silver Line Way,,,,42.347154,-71.038385,,,https://www.mbta.com/stops/place-conrd,,1,,1,Boston,,,,"""['74614', '74624']"""
place-crtst,,Courthouse,,,,42.35245,-71.04685,,"Seaport Blvd and Pittsburg St, Boston, MA",https://www.mbta.com/stops/place-crtst,,1,,1,Boston,,,,"""['74612', '74616', 'node-412-landing', 'node-412-lobby', 'node-413-entrance', 'node-413-landing', 'node-414-lobby', 'node-414-platform', 'node-415-lobby', 'node-415-platform', 'node-416-lobby', 'node-416-platform', 'node-417-lobby', 'node-417-platform', 'node-418-entrance', 'node-418-lobby', 'node-937-lobby', 'node-937-platform', 'node-938-lobby', 'node-938-platform', 'node-939-entrance', 'node-939-lobby', 'node-940-entrance', 'node-940-lobby', 'node-crtst-northentstair-entrance', 'node-crtst-northentstair-lobby', 'node-crtst-southentstair-entrance', 'node-crtst-southentstair-landing', 'node-crtst-southlobstair-landing', 'node-crtst-southlobstair-lobby', 'node-crtst-ssexit-farepaid', 'node-crtst-ssexit-fareunpaid', 'node-crtst-ssexitstair-lobby', 'node-crtst-ssexitstair-platform', 'node-crtst-ssmain-farepaid', 'node-crtst-ssmain-fareunpaid', 'node-crtst-ssmainstair-lobby', 'node-crtst-ssmainstair-platform', 'node-crtst-wtcexit-farepaid', 'node-crtst-wtcexit-fareunpaid', 'node-crtst-wtcexitstair-lobby', 'node-crtst-wtcexitstair-platform', 'node-crtst-wtcmain-farepaid', 'node-crtst-wtcmain-fareunpaid', 'node-crtst-wtcmainstair-lobby', 'node-crtst-wtcmainstair-platform']"""
door-crtst-north,,"Courthouse - Fan Pier Blvd, Seaport Blvd","Courthouse - Fan Pier Blvd, Seaport Blvd",,,42.352611,-71.047046,,,,level_in_street,2,place-crtst,1,Boston,,,,[]
door-crtst-south,,"Courthouse - Thomson Pl, Seaport Blvd","Courthouse - Thomson Pl, Seaport Blvd",,,42.352247,-71.046901,,,,level_in_street,2,place-crtst,1,Boston,,,,[]
place-davis,,Davis,,,,42.39674,-71.121815,,"College Ave and Elm St, Somerville, MA",https://www.mbta.com/stops/place-davis,,1,,1,Somerville,,,,"""['70063', '70064', 'node-336-entrance', 'node-336-middle', 'node-337-entrance', 'node-337-middle', 'node-338-lobby', 'node-338-middle', 'node-339-lobby', 'node-339-middle', 'node-340-lobby', 'node-340-platform', 'node-341-lobby', 'node-341-platform', 'node-342-entrance', 'node-342-lobby', 'node-343-entrance', 'node-343-lobby', 'node-816-lobby', 'node-816-platform', 'node-817-entrance', 'node-817-lobby', 'node-davis-340stair-lobby', 'node-davis-340stair-platform', 'node-davis-341stair-lobby', 'node-davis-341stair-platform', 'node-davis-colstairlow-lobby', 'node-davis-colstairlow-middle', 'node-davis-colstairup-entrance', 'node-davis-colstairup-middle', 'node-davis-farepaid', 'node-davis-fareunpaid', 'node-davis-holland-entrance', 'node-davis-holland-lobby']"""
door-davis-busway,,"Davis - College Ave, Tufts University, Buses","Davis - College Ave, Tufts University, Buses",,,42.396742,-71.121989,,,,level_in_street,2,place-davis,1,Somerville,,,,[]
door-davis-holland,,"Davis - Holland St, Buses","Davis - Holland St, Buses",,,42.396992,-71.123191,,,,level_in_street,2,place-davis,2,Somerville,,,,[]
place-dwnxg,,Downtown Crossing,,,,42.355518,-71.060225,,"Washington St and Summer St, Boston, MA",https://www.mbta.com/stops/place-dwnxg,,1,,1,Boston,,,,"""['70020', '70021', '70077', '70078', 'node-112-platform', 'node-113-platform', 'node-331-ol', 'node-331-rl', 'node-332-ol', 'node-332-rl', 'node-364-lobby', 'node-365-middle', 'node-869-lobby', 'node-869-platform', 'node-870-lobby', 'node-870-platform', 'node-891-lobby', 'node-892-lobby', 'node-998-ol', 'node-998-rl', 'node-999-ol', 'node-999-rl', 'node-dwnxg-112fare-paid', 'node-dwnxg-112fare-unpaid', 'node-dwnxg-113fare-paid', 'node-dwnxg-113fare-unpaid', 'node-dwnxg-concourse', 'node-dwnxg-frnkfare-paid', 'node-dwnxg-frnkfare-unpaid', 'node-dwnxg-macysramp-lobby', 'node-dwnxg-macysstairs-lobby', 'node-dwnxg-nbsumexitfare-paid', 'node-dwnxg-nbsumexitfare-unpaid', 'node-dwnxg-sbsumexitfare-paid', 'node-dwnxg-sbsumexitfare-unpaid', 'node-dwnxg-stair1-ol', 'node-dwnxg-stair1-rl', 'node-dwnxg-stair10-lobby', 'node-dwnxg-stair10-middle', 'node-dwnxg-stair11-lobby', 'node-dwnxg-stair11-middle', 'node-dwnxg-stair12-middle', 'node-dwnxg-stair13-lobby', 'node-dwnxg-stair14-lobby', 'node-dwnxg-stair15-lobby', 'node-dwnxg-stair16-lobby', 'node-dwnxg-stair2-ol', 'node-dwnxg-stair2-rl', 'node-dwnxg-stair3-platform', 'node-dwnxg-stair4-lobby', 'node-dwnxg-stair4-platform', 'node-dwnxg-stair5-lobby', 'node-dwnxg-stair5-platform', 'node-dwnxg-stair6-platform', 'node-dwnxg-stair7-ol', 'node-dwnxg-stair7-rl', 'node-dwnxg-stair8-ol', 'node-dwnxg-stair8-rl', 'node-dwnxg-stair9-lobby', 'node-dwnxg-sumchyfare-paid', 'node-dwnxg-sumchyfare-unpaid', 'node-dwnxg-sumwashfare-paid', 'node-dwnxg-sumwashfare-unpaid', 'node-dwnxg-templefare-paid', 'node-dwnxg-templefare-unpaid', 'node-dwnxg-wintexitfare-paid', 'node-dwnxg-wintexitfare-unpaid', 'node-dwnxg-wintwashfare-paid', 'node-dwnxg-wintwashfare-unpaid']"""
door-dwnxg-101arch,,"Downtown Crossing - 101 Arch St, Summer St","Downtown Crossing - 101 Arch St, Summer St",,,42.354843,-71.05948,,,,level_-1_concourse,2,place-dwnxg,1,Boston,,,,[]
door-dwnxg-chauncy,,Downtown Crossing - Chauncy St,Downtown Crossing - Chauncy St,,,42.35436,-71.059588,,,,level_in_street,2,place-dwnxg,2,Boston,,,,[]
door-dwnxg-franklin,,Downtown Crossing - Franklin St,Downtown Crossing - Franklin St,,,42.356064,-71.059326,,,,level_in_street,2,place-dwnxg,1,Boston,,,,[]
door-dwnxg-hawley,,Downtown Crossing - Hawley St (Escalator),Downtown Crossing - Hawley St (Escalator),,,42.355229,-71.059366,,,,level_in_street,2,place-dwnxg,2,Boston,,,,[]
door-dwnxg-macys,,Downtown Crossing - Macy's,Downtown Crossing - Macy's,,,42.355253,-71.060521,,,,level_-1_concourse,2,place-dwnxg,1,Boston,,,,[]
door-dwnxg-rochebros,,Downtown Crossing - Roche Bros,Downtown Crossing - Roche Bros,,,42.355292,-71.060075,,,,level_-1_concourse,2,place-dwnxg,1,Boston,,,,[]
door-dwnxg-summer,,"Downtown Crossing - Washington St, Summer St","Downtown Crossing - Washington St, Summer St",,,42.355519,-71.060327,,,,level_in_street,2,place-dwnxg,2,Boston,,,,[]
door-dwnxg-summereast,,"Downtown Crossing - Summer St, Washington St","Downtown Crossing - Summer St, Washington St",,,42.355369,-71.060192,,,,level_in_street,2,place-dwnxg,2,Boston,,,,[]
door-dwnxg-temple,,"Downtown Crossing - Temple Place, Lafaytette Place","Downtown Crossing - Temple Place, Lafaytette Place",,,42.354877,-71.061547,,,,level_in_street,2,place-dwnxg,2,Boston,,,,[]
door-dwnxg-winter,,"Downtown Crossing - Washington St, Winter St","Downtown Crossing - Washington St, Winter St",,,42.355362,-71.06072,,,,level_in_street,2,place-dwnxg,1,Boston,,,,[]
place-eliot,,Eliot,,,,42.319045,-71.216684,,"248 Lincoln St, Newton, MA 02461",https://www.mbta.com/stops/place-eliot,,1,,2,Newton,,,,"""['70166', '70167', 'node-eliot-boyle-bridge', 'node-eliot-boylwr-platform', 'node-eliot-boylws-bridge']"""
door-eliot-boyle,,Eliot - Boylston St Eastbound,Eliot - Boylston St Eastbound,,,42.318301,-71.215414,,,,level_boylston_st,2,place-eliot,1,Newton,,,,[]
door-eliot-boylwr,,Eliot - Boylston St Westbound (Ramp),Eliot - Boylston St Westbound (Ramp),,,42.318555,-71.21543,,,,level_boylston_st,2,place-eliot,1,Newton,,,,[]
door-eliot-boylws,,Eliot - Boylston St Westbound (Stairs),Eliot - Boylston St Westbound (Stairs),,,42.318488,-71.215831,,,,level_boylston_st,2,place-eliot,2,Newton,,,,[]
door-eliot-lincoln,,"Eliot - Lincoln St, Parking","Eliot - Lincoln St, Parking",,,42.319272,-71.216878,,,,level_in_street,2,place-eliot,2,Newton,,,,[]
door-eliot-meredith,,Eliot - Meredith Ave,Eliot - Meredith Ave,,,42.319024,-71.216831,,,,level_in_street,2,place-eliot,1,Newton,,,,[]
place-engav,,Englewood Avenue,,,,42.336971,-71.14566,,"Beacon St and Englewood Ave, Brookline, MA",https://www.mbta.com/stops/place-engav,,1,,2,Brookline,,,,"""['70235', '70236']"""
place-esomr,,East Somerville,,,,42.379467,-71.086625,,"134 Washington St, Somerville, MA 02143",https://www.mbta.com/stops/place-esomr,,1,,1,Somerville,,,,"""['70513', '70514']"""
door-esomr-washington,,East Somerville - Washington St,East Somerville - Washington St,,,42.379391,-71.086636,,,,level_1_ground,2,place-esomr,1,Somerville,,,,[]
place-estav,,Eastern Avenue,,,,42.388374,-71.023859,,,https://www.mbta.com/stops/place-estav,,1,,1,Chelsea,,,,"""['74636', '74637']"""
place-fenwd,,Fenwood Road,,,,42.333706,-71.105728,,"Huntington Ave and Fenwood Rd, Boston, MA",https://www.mbta.com/stops/place-fenwd,,1,,2,Boston,,,,"""['70251', '70252']"""
place-fenwy,,Fenway,,,,42.345403,-71.104213,,"411 Park Dr, Boston, MA 02215",https://www.mbta.com/stops/place-fenwy,,1,,1,Boston,,,,"""['70186', '70187', 'node-fenwy-stairs-platform']"""
door-fenwy-longwood,,"Fenway - Fenway Park, Park Dr, Longwood","Fenway - Fenway Park, Park Dr, Longwood",,,42.345393,-71.104116,,,,level_ground,2,place-fenwy,1,Boston,,,,[]
door-fenwy-parkdr,,Fenway - Park Dr (Stairs),Fenway - Park Dr (Stairs),,,42.345298,-71.10423,,,,level_1_in_street,2,place-fenwy,2,Boston,,,,[]
place-fldcr,,Fields Corner,,,,42.300093,-71.061667,,"50 Freeman St, Dorchester, MA 02122",https://www.mbta.com/stops/place-fldcr,,1,,1,Boston,,,,"""['70089', '70090', 'node-427-lobby', 'node-427-platform', 'node-957-lobby', 'node-957-platform', 'node-958-lobby', 'node-958-platform', 'node-fldcr-alewstair-lobby', 'node-fldcr-alewstair-platform', 'node-fldcr-ashstair-lobby', 'node-fldcr-ashstair-platform', 'node-fldcr-charlesramp-lobby', 'node-fldcr-charlesstairs-lobby', 'node-fldcr-farepaid', 'node-fldcr-fareunpaid']"""
door-fldcr-busway,,"Fields Corner - Busway, Street","Fields Corner - Busway, Street",,,42.300019,-71.061475,,,,level_ground,2,place-fldcr,1,Boston,,,,[]
door-fldcr-charles,,Fields Corner - Charles St,Fields Corner - Charles St,,,42.300463,-71.061868,,,,level_0.5_ground,2,place-fldcr,1,Boston,,,,[]
place-forhl,,Forest Hills,,,,42.300713,-71.113943,CR-zone-1A,"Washington St and Hyde Park Ave, Jamaica Plain, MA 02130",https://www.mbta.com/stops/place-forhl,,1,,1,Boston,,,,"""['70001', 'Forest Hills-01', 'Forest Hills-02', 'NEC-2237', 'NEC-2237-03', 'NEC-2237-05', 'node-127-busway', 'node-127-lobby', 'node-128-busway', 'node-128-lobby', 'node-129-lobby', 'node-129-platform', 'node-130-lobby', 'node-130-platform', 'node-724-lobby', 'node-724-platform', 'node-841-lobby', 'node-841-platform', 'node-842-lobby', 'node-842-platform', 'node-843-busway', 'node-843-lobby', 'node-forhl-busfarepaid', 'node-forhl-busfareunpaid', 'node-forhl-crstairs-lobby', 'node-forhl-crstairs-platform', 'node-forhl-lowerdoor', 'node-forhl-nlowbusstairs-busway', 'node-forhl-nlowbusstairs-lobby', 'node-forhl-nplatstairs-lobby', 'node-forhl-nplatstairs-platform', 'node-forhl-slowbusstairs-busway', 'node-forhl-slowbusstairs-lobby', 'node-forhl-southfarepaid', 'node-forhl-southfareunpaid', 'node-forhl-southstairs-lobby', 'node-forhl-southstairs-platform', 'node-forhl-splatstairs-lobby', 'node-forhl-splatstairs-platform', 'node-forhl-upperdoor']"""
door-forhl-arborway,,"Forest Hills - Arborway, Arnold Arboretum, South St, Washington St (Jamaica Plain)","Forest Hills - Arborway, Arnold Arboretum, South St, Washington St (Jamaica Plain)",,,42.300934,-71.11382,,,,level_washington_st,2,place-forhl,1,Boston,,,,[]
door-forhl-lowern,,"Forest Hills - Hyde Park Ave, West Roxbury Court, Franklin Park/Zoo (North)","Forest Hills - Hyde Park Ave, West Roxbury Court, Franklin Park/Zoo (North)",,,42.300974,-71.113346,,,,level_hyde_park_ave,2,place-forhl,1,Boston,,,,[]
door-forhl-lowers,,"Forest Hills - Hyde Park Ave, West Roxbury Court, Franklin Park/Zoo (South)","Forest Hills - Hyde Park Ave, West Roxbury Court, Franklin Park/Zoo (South)",,,42.300134,-71.113898,,,,level_hyde_park_ave,2,place-forhl,1,Boston,,,,[]
door-forhl-south,,"Forest Hills - Arborway, Southwest Corridor Park","Forest Hills - Arborway, Southwest Corridor Park",,,42.30183,-71.113534,,,,level_washington_st,2,place-forhl,1,Boston,,,,[]
door-forhl-upper,,Forest Hills - Washington St (Roslindale),Forest Hills - Washington St (Roslindale),,,42.300204,-71.114404,,,,level_washington_st,2,place-forhl,1,Boston,,,,[]
place-gilmn,,Gilman Square,,,,42.387928,-71.096766,,"161 School St, Somerville, MA 02143",https://www.mbta.com/stops/place-gilmn,,1,,1,Somerville,,,,"""['70505', '70506', 'node-765-bottom', 'node-765-top', 'node-766-bottom', 'node-766-top', 'node-gilmn-medstairs-bottom', 'node-gilmn-medstairs-top', 'node-gilmn-schstairs-bottom', 'node-gilmn-schstairs-top']"""
door-gilmn-medford,,Gilman Square - Medford St,Gilman Square - Medford St,,,42.387592,-71.096227,,,,level_ground,2,place-gilmn,1,Somerville,,,,[]
door-gilmn-school,,Gilman Square - School St,Gilman Square - School St,,,42.388307,-71.097622,,,,level_in_street,2,place-gilmn,1,Somerville,,,,[]
place-gover,,Government Center,,,,42.359705,-71.059215,,"Cambridge St and Court St, Boston, MA",https://www.mbta.com/stops/place-gover,,1,,1,Boston,,,,"""['70039', '70040', '70201', '70202', 'Government Center-Brattle', 'node-444-lobby', 'node-444-platform', 'node-445-lobby', 'node-445-platform', 'node-446-bl', 'node-446-gl', 'node-720-lobby', 'node-720-platform', 'node-721-lobby', 'node-721-platform', 'node-722-bl', 'node-722-gl', 'node-723-bl', 'node-723-gl', 'node-gover-ebtransstairs-bl', 'node-gover-ebtransstairs-gl', 'node-gover-farepaid', 'node-gover-fareunpaid', 'node-gover-nentrancestairs-lobby', 'node-gover-nentrancestairs-platform', 'node-gover-sentrancestairs-lobby', 'node-gover-sentrancestairs-platform', 'node-gover-wbtransstairs-bl', 'node-gover-wbtransstairs-gl']"""
door-gover-main,,Government Center - City Hall Plaza,Government Center - City Hall Plaza,,,42.359699,-71.05936,,,,level_in_street,2,place-gover,1,Boston,,,,[]
place-grigg,,Griggs Street,,,,42.348545,-71.134949,,"Commonwealth Ave and Griggs St, Boston, MA",https://www.mbta.com/stops/place-grigg,,1,,2,Boston,,,,"""['70128', '70129']"""
place-grnst,,Green Street,,,,42.310525,-71.107414,,"150 Green St, Jamaica Plain, MA",https://www.mbta.com/stops/place-grnst,,1,,1,Boston,,,,"""['70002', '70003', 'node-grnst-131-lobby', 'node-grnst-131-platform', 'node-grnst-844-lobby', 'node-grnst-844-platform', 'node-grnst-farepaid', 'node-grnst-fareunpaid', 'node-grnst-stairs-lobby', 'node-grnst-stairs-platform']"""
door-grnst-main,,"Green Street - Woolsey Sq, Green St, Amory St","Green Street - Woolsey Sq, Green St, Amory St",,,42.310556,-71.107519,,,,level_in_street,2,place-grnst,1,Boston,,,,[]
place-haecl,,Haymarket,,,,42.363021,-71.05829,,"136 Blackstone St, Boston, MA 02109",https://www.mbta.com/stops/place-haecl,,1,,1,Boston,,,,"""['70024', '70025', '70203', '70204', 'node-313-lobby', 'node-903-lobby', 'node-903-passage', 'node-903-platform', 'node-904-lobby', 'node-904-platform', 'node-905-passage', 'node-905-platform', 'node-906-green', 'node-906-passage', 'node-907-passage', 'node-907-platform', 'node-908-lobby', 'node-haecl-busfarepaid', 'node-haecl-busfareunpaid', 'node-haecl-busolstair-green', 'node-haecl-busolstair-passage', 'node-haecl-busstair-lobby', 'node-haecl-congfarepaid', 'node-haecl-congfareunpaid', 'node-haecl-congfhplatn-passage', 'node-haecl-congfhplatn-platform', 'node-haecl-congfhplats-passage', 'node-haecl-congfhplats-platform', 'node-haecl-congfhstair-lobby', 'node-haecl-congfhstair-passage', 'node-haecl-congogplatn-passage', 'node-haecl-congogplatn-platform', 'node-haecl-congogplats-passage', 'node-haecl-congogplats-platform', 'node-haecl-congogstairn-lobby', 'node-haecl-congogstairn-passage', 'node-haecl-congogstairs-lobby', 'node-haecl-congogstairs-passage', 'node-haecl-glstair-green', 'node-haecl-glstair-passage', 'node-haecl-passfhstair-passage', 'node-haecl-passfhstair-platform', 'node-haecl-passogstair-passage', 'node-haecl-passogstair-platform']"""
door-haecl-busway,,"Haymarket - RMV, Sudbury St, New Chardon St","Haymarket - RMV, Sudbury St, New Chardon St",,,42.3629,-71.058138,,,,level_in_street,2,place-haecl,1,Boston,,,,[]
door-haecl-congress,,"Haymarket - RMV, City Hall, Faneuil Hall Marketplace","Haymarket - RMV, City Hall, Faneuil Hall Marketplace",,,42.361977,-71.057805,,,,level_in_street,2,place-haecl,1,Boston,,,,[]
place-harsq,,Harvard,,,,42.373362,-71.118956,,"1400 Massachusetts Ave, Cambridge, MA",https://www.mbta.com/stops/place-harsq,,1,,1,Cambridge,,,,"""['2076', '20761', '70067', '70068', 'node-512-landing', 'node-513-landing', 'node-514-landing', 'node-514-lobby', 'node-515-landing', 'node-515-lobby', 'node-516-lobby', 'node-516-platform', 'node-821-lobby', 'node-973-upper', 'node-harsq-bratstair-upper', 'node-harsq-churstair-lobby', 'node-harsq-harfarepaid', 'node-harsq-harfareunpaid', 'node-harsq-harstair-lobby', 'node-harsq-harstair-platform', 'node-harsq-lowerramp-lobby', 'node-harsq-lowerramp-lower', 'node-harsq-lowerstair-lobby', 'node-harsq-lowerstair-lower', 'node-harsq-lowupstair-lower', 'node-harsq-lowupstair-upper', 'node-harsq-nbramp-platform', 'node-harsq-sbramp-platform', 'node-harsq-sbstair-nb', 'node-harsq-sbstair-sbn', 'node-harsq-sbstair-sbs', 'node-harsq-sqfarepaid', 'node-harsq-sqfareunpaid', 'node-harsq-sqhighstair-landing', 'node-harsq-sqlowstair-landing', 'node-harsq-sqlowstair-lobby', 'node-harsq-upperramp-lobby', 'node-harsq-upperramp-upper', 'node-harsq-yardstair-lobby']"""
door-harsq-brattle,,Harvard - Brattle Square,Harvard - Brattle Square,,,42.37331,-71.120545,,,,level_in_street,2,place-harsq,1,Cambridge,,,,[]
door-harsq-church,,"Harvard - Church St, Harvard Square","Harvard - Church St, Harvard Square",,,42.374317,-71.118956,,,,level_in_street,2,place-harsq,2,Cambridge,,,,[]
door-harsq-square,,Harvard - Harvard Square,Harvard - Harvard Square,,,42.373371,-71.119004,,,,level_in_street,2,place-harsq,1,Cambridge,,,,[]
door-harsq-yard,,"Harvard - Church St, Harvard Yard","Harvard - Church St, Harvard Yard",,,42.374384,-71.118669,,,,level_in_street,2,place-harsq,2,Cambridge,,,,[]
place-harvd,,Harvard Avenue,,,,42.350243,-71.131355,,"Commonwealth Ave and Harvard Ave, Boston, MA",https://www.mbta.com/stops/place-harvd,,1,,1,Boston,,,,"""['70130', '70131']"""
place-hsmnl,,Heath Street,,,,42.328316,-71.110252,,"Heath St and South Huntington Ave, Boston, MA",https://www.mbta.com/stops/place-hsmnl,,1,,1,Boston,,,,"""['70260']"""
place-hymnl,,Hynes Convention Center,,,,42.347888,-71.087903,,"100 Massachusetts Ave, Boston, MA",https://www.mbta.com/stops/place-hymnl,,1,,2,Boston,,,,"""['70152', '70153', 'node-315-platform', 'node-315-top', 'node-hymnl-ebstairs-lobby', 'node-hymnl-ebstairs-platform', 'node-hymnl-farepaid', 'node-hymnl-fareunpaid', 'node-hymnl-massentrance', 'node-hymnl-newbury-farepaid', 'node-hymnl-newbury-fareunpaid', 'node-hymnl-newburyexit', 'node-hymnl-wbstairs-lobby', 'node-hymnl-wbstairs-midblobby', 'node-hymnl-wbstairs-midtlobby', 'node-hymnl-wbstairs-platform']"""
door-hymnl-mass,,"Hynes Convention Center - Massachusetts Ave, Buses","Hynes Convention Center - Massachusetts Ave, Buses",,,42.347837,-71.087825,,,,level_in_street,2,place-hymnl,2,Boston,,,,[]
door-hymnl-newbury,,Hynes Convention Center - Newbury St,Hynes Convention Center - Newbury St,,,42.348151,-71.087555,,,,level_in_street,2,place-hymnl,2,Boston,,,,[]
place-jaksn,,Jackson Square,,,,42.323132,-71.099592,,"1500 Columbus Ave, Jamaica Plain, MA",https://www.mbta.com/stops/place-jaksn,,1,,1,Boston,,,,"""['70006', '70007', 'node-jaksn-133-lobby', 'node-jaksn-133-platform', 'node-jaksn-846-lobby', 'node-jaksn-846-platform', 'node-jaksn-farepaid', 'node-jaksn-fareunpaid', 'node-jaksn-stairs-lobby', 'node-jaksn-stairs-platform']"""
door-jaksn-main,,"Jackson Square - Centre St, Busway, Park","Jackson Square - Centre St, Busway, Park",,,42.323014,-71.099879,,,,level_ground,2,place-jaksn,1,Boston,,,,[]
place-jfk,,JFK/UMass,,,,42.320685,-71.052391,CR-zone-1A,"599 Old Colony Ave, Boston, MA 02127-3805",https://www.mbta.com/stops/place-jfk,,1,,1,Boston,,,,"""['70085', '70086', '70095', '70096', 'MM-0023-S', 'node-322-lobby', 'node-322-platform', 'node-830-lobby', 'node-830-platform', 'node-831-lobby', 'node-831-platform', 'node-jfk-ashcolfarepaid', 'node-jfk-ashcolfareunpaid', 'node-jfk-ashcolstair-lobby', 'node-jfk-ashcolstair-platform', 'node-jfk-ashganstair-lobby', 'node-jfk-ashganstair-platform', 'node-jfk-ashgasstair-lobby', 'node-jfk-ashgasstair-platform', 'node-jfk-ashsydstair-lobby', 'node-jfk-ashsydstair-platform', 'node-jfk-bracolfarepaid', 'node-jfk-bracolfareunpaid', 'node-jfk-bracolstair-lobby', 'node-jfk-bracolstair-platform', 'node-jfk-braganstair-lobby', 'node-jfk-braganstair-platform', 'node-jfk-bragasstair-lobby', 'node-jfk-bragasstair-platform', 'node-jfk-brasydstair-lobby', 'node-jfk-brasydstair-platform', 'node-jfk-busramp-lobby', 'node-jfk-crcolstair-columbia', 'node-jfk-crcolstair-street', 'node-jfk-crramp-cr', 'node-jfk-crramp-street', 'node-jfk-mainfarepaid', 'node-jfk-mainfareunpaid', 'node-jfk-oldstaire-lobby', 'node-jfk-oldstairw-lobby', 'node-jfk-sydfarepaid', 'node-jfk-sydfareunpaid', 'node-jfk-sydneynstair-lobby', 'node-jfk-sydneysstair-lobby']"""
door-jfk-busway,,"JFK/UMass - Busway, JFK Library, Mount Vernon St (Ramp)","JFK/UMass - Busway, JFK Library, Mount Vernon St (Ramp)",,,42.320486,-71.051545,,,,level_ground,2,place-jfk,1,Boston,,,,[]
door-jfk-columbia,,JFK/UMass - Columbia Rd,JFK/UMass - Columbia Rd,,,42.321358,-71.052583,,,,level_columbia_rd,2,place-jfk,1,Boston,,,,[]
door-jfk-oldcolony,,"JFK/UMass - Busway, JFK Library, Mount Vernon St (Stairs)","JFK/UMass - Busway, JFK Library, Mount Vernon St (Stairs)",,,42.320829,-71.051623,,,,level_ground,2,place-jfk,2,Boston,,,,[]
door-jfk-sydneyn,,JFK/UMass - Sydney St (North),JFK/UMass - Sydney St (North),,,42.320597,-71.052713,,,,level_in_street,2,place-jfk,2,Boston,,,,[]
door-jfk-sydneys,,JFK/UMass - Sydney St (South),JFK/UMass - Sydney St (South),,,42.319895,-71.052602,,,,level_in_street,2,place-jfk,2,Boston,,,,[]
place-kencl,,Kenmore,,,,42.348949,-71.095169,,"Commonwealth Ave and Kenmore St, Boston, MA 02215",https://www.mbta.com/stops/place-kencl,,1,,1,Boston,,,,"""['70150', '70151', '71150', '71151', 'node-430-landing', 'node-431-lobby', 'node-431-platform', 'node-432-lobby', 'node-432-platform', 'node-948-lobby', 'node-971-lobby', 'node-971-platform', 'node-972-paidlobby', 'node-972-platform', 'node-972-unpaidlobby', 'node-kencl-beacstair-lobby', 'node-kencl-busstair-landing', 'node-kencl-commstair-lobby', 'node-kencl-ebstair-lobby', 'node-kencl-ebstair-platform', 'node-kencl-farepaid', 'node-kencl-fareunpaid', 'node-kencl-fvmramp-landing', 'node-kencl-fvmramp-lobby', 'node-kencl-fvmstair-landing', 'node-kencl-fvmstair-lobby', 'node-kencl-wbstair-lobby', 'node-kencl-wbstair-platform']"""
door-kencl-beacon,,"Kenmore - Boston University, Beacon St","Kenmore - Boston University, Beacon St",,,42.349273,-71.095549,,,,level_in_street,2,place-kencl,2,Boston,,,,[]
door-kencl-busway,,"Kenmore - Busway, Commonwealth Ave","Kenmore - Busway, Commonwealth Ave",,,42.348882,-71.09542,,,,level_ground,2,place-kencl,1,Boston,,,,[]
door-kencl-commonwealth,,"Kenmore - Fenway Park, Commonwealth Ave","Kenmore - Fenway Park, Commonwealth Ave",,,42.348616,-71.09552,,,,level_in_street,2,place-kencl,1,Boston,,,,[]
place-knncl,,Kendall/MIT,,,,42.362491,-71.086176,,"300 Main St, Cambridge, MA 02142",https://www.mbta.com/stops/place-knncl,,1,,1,Cambridge,,,,"""['70071', '70072', 'node-450-entrance', 'node-450-platform', 'node-756-entrance', 'node-756-platform', 'node-757-entrance', 'node-757-platform', 'node-866-entrance', 'node-866-platform', 'node-knncl-backnbstair-entrance', 'node-knncl-backnbstair-platform', 'node-knncl-frontnbstair-entrance', 'node-knncl-frontnbstair-platform', 'node-knncl-frontsbstair-entrance', 'node-knncl-frontsbstair-platform', 'node-knncl-nbmain-farepaid', 'node-knncl-nbmain-fareunpaid', 'node-knncl-nbsec-farepaid', 'node-knncl-nbsec-fareunpaid', 'node-knncl-sbcarleton-entrance', 'node-knncl-sbcarleton-platform', 'node-knncl-sbmain-entrance', 'node-knncl-sbmain-farepaid', 'node-knncl-sbmain-fareunpaid', 'node-knncl-sbmain-platform', 'node-knncl-sbsec-farepaid', 'node-knncl-sbsec-fareunpaid']"""
door-knncl-nbmain,,"Kendall/MIT - Main St, Buses","Kendall/MIT - Main St, Buses",,,42.362614,-71.086678,,,,level_in_street,2,place-knncl,1,Cambridge,,,,[]
door-knncl-nbsecond,,"Kendall/MIT - Main St, Third St","Kendall/MIT - Main St, Third St",,,42.362439,-71.084837,,,,level_in_street,2,place-knncl,2,Cambridge,,,,"""['door-knncl-sbsecond']"""
door-knncl-sbcarleton,,Kendall/MIT - Carleton St,Kendall/MIT - Carleton St,,,42.362005,-71.086255,,,,level_in_street,2,place-knncl,2,Cambridge,,,,[]
door-knncl-sbelevator,,"Kendall/MIT - Elevator, Buses, Main St, Third St, Carleton St","Kendall/MIT - Elevator, Buses, Main St, Third St, Carleton St",,,42.362125,-71.086145,,,,level_in_street,2,place-knncl,1,Cambridge,,,,[]
door-knncl-sbmain,,"Kendall/MIT - Buses, Main St, Third St","Kendall/MIT - Buses, Main St, Third St",,,42.362303,-71.086149,,,,level_in_street,2,place-knncl,2,Cambridge,,,,[]
place-lake,,Boston College,,,,42.340081,-71.166769,,"Commonwealth Ave and Lake St, Boston, MA 02135",https://www.mbta.com/stops/place-lake,,1,,1,Boston,,,,"""['70106', '70107']"""
place-lech,,Lechmere,,,,42.371572,-71.076584,,"3 North First St, Cambridge, MA 02141",https://www.mbta.com/stops/place-lech,,1,,1,Cambridge,,,,"""['70501', '70502', 'node-762-bottom', 'node-762-top', 'node-763-bottom', 'node-763-top', 'node-764-bottom', 'node-764-top', 'node-lech-firststairs-bottom', 'node-lech-firststairs-top', 'node-lech-obrienstairs-bottom', 'node-lech-obrienstairs-top']"""
door-lech-busway,,Lechmere - Busway,Lechmere - Busway,,,42.371733,-71.076881,,,,level_ground,2,place-lech,1,Cambridge,,,,[]
door-lech-first,,Lechmere - North First St,Lechmere - North First St,,,42.371572,-71.076584,,,,level_ground,2,place-lech,1,Cambridge,,,,[]
door-lech-firstracks,,"Lechmere - Busway, North First St","Lechmere - Busway, North First St",,,42.3717,-71.076726,,,,level_ground,2,place-lech,1,Cambridge,,,,[]
door-lech-obrien,,Lechmere - O'Brien Hwy,Lechmere - O'Brien Hwy,,,42.370844,-71.075681,,,,level_ground,2,place-lech,1,Cambridge,,,,[]
place-lngmd,,Longwood Medical Area,,,,42.33596,-71.100052,,"Huntington Ave and Longwood Ave, Boston, MA 02115",https://www.mbta.com/stops/place-lngmd,,1,,1,Boston,,,,"""['70247', '70248']"""
place-longw,,Longwood,,,,42.341702,-71.109956,,"30 Chapel St, Brookline, MA 02446",https://www.mbta.com/stops/place-longw,,1,,1,Brookline,,,,"""['70182', '70183', 'node-longw-cstairs-platform', 'node-longw-eramp-landing', 'node-longw-estairs-landing', 'node-longw-pramp-landing', 'node-longw-pramp-platform', 'node-longw-pstairs-landing', 'node-longw-pstairs-platform']"""
door-longw-colchester,,"Longwood - Chapel St, Colchester St","Longwood - Chapel St, Colchester St",,,42.34189,-71.109877,,,,level_in_street,2,place-longw,2,Brookline,,,,[]
door-longw-longwood,,"Longwood - Chapel St, Longwood Ave","Longwood - Chapel St, Longwood Ave",,,42.341542,-71.110298,,,,level_in_street,2,place-longw,1,Brookline,,,,[]
door-longw-neckramp,,Longwood - Emerald Necklace (Ramp),Longwood - Emerald Necklace (Ramp),,,42.341747,-71.10961,,,,level_ground,2,place-longw,1,Brookline,,,,[]
door-longw-neckstairs,,Longwood - Emerald Necklace (Stairs),Longwood - Emerald Necklace (Stairs),,,42.341394,-71.110009,,,,level_ground,2,place-longw,2,Brookline,,,,[]
place-masta,,Massachusetts Avenue,,,,42.341512,-71.083423,,"393 Massachusetts Ave, Boston, MA 02118",https://www.mbta.com/stops/place-masta,,1,,1,Boston,,,,"""['70012', '70013', 'node-masta-139-lobby', 'node-masta-139-platform', 'node-masta-852-lobby', 'node-masta-852-platform', 'node-masta-camdstair-platform', 'node-masta-camfarepaid', 'node-masta-camfareunpaid', 'node-masta-farepaid', 'node-masta-fareunpaid', 'node-masta-mainstair-lobby', 'node-masta-mainstair-platform', 'node-masta-undernorth-lobby', 'node-masta-undernorth-way', 'node-masta-undersouth-lobby', 'node-masta-undersouth-way', 'node-masta-unpaid-lobby', 'node-masta-unpramp-exit', 'node-masta-unpramp-lobby', 'node-masta-unpstair-exit', 'node-masta-unpstair-lobby']"""
door-masta-camden,,Massachusetts Avenue - Camden St,Massachusetts Avenue - Camden St,,,42.340379,-71.084763,,,,level_ground,2,place-masta,2,Boston,,,,[]
door-masta-corridor,,Massachusetts Avenue - Massachusetts Ave (Northside),Massachusetts Avenue - Massachusetts Ave (Northside),,,42.341773,-71.083167,,,,level_in_street,2,place-masta,1,Boston,,,,[]
door-masta-main,,Massachusetts Avenue - Massachusetts Ave (Southside),Massachusetts Avenue - Massachusetts Ave (Southside),,,42.341551,-71.083436,,,,level_in_street,2,place-masta,1,Boston,,,,[]
door-masta-side,,Massachusetts Avenue - Southwest Corridor Park,Massachusetts Avenue - Southwest Corridor Park,,,42.341364,-71.083434,,,,level_ground,2,place-masta,1,Boston,,,,[]
place-matt,,Mattapan,,,,42.26762,-71.092486,,"500 River St, Boston, MA 02126",https://www.mbta.com/stops/place-matt,,1,,1,Boston,,,,"""['70275', '70276']"""
door-matt-neponset,,"Mattapan - Neponset Trail, Parking","Mattapan - Neponset Trail, Parking",,,42.267744,-71.091871,,,,level_ground,2,place-matt,1,Boston,,,,[]
door-matt-northbus,,Mattapan - Upper Busway,Mattapan - Upper Busway,,,42.267684,-71.092224,,,,level_ground,2,place-matt,1,Boston,,,,[]
door-matt-southbus,,Mattapan - Lower Busway,Mattapan - Lower Busway,,,42.267431,-71.092376,,,,level_ground,2,place-matt,1,Boston,,,,[]
door-matt-square,,Mattapan - Mattapan Square,Mattapan - Mattapan Square,,,42.267516,-71.093089,,,,level_ground,2,place-matt,1,Boston,,,,[]
place-mdftf,,Medford/Tufts,,,,42.407975,-71.117044,,"460 Boston Ave, Medford, MA 02155",https://www.mbta.com/stops/place-mdftf,,1,,1,Medford,,,,"""['70511', '70512', 'node-770-bottom', 'node-770-top', 'node-772-bottom', 'node-772-top', 'node-mdftf-stairs-bottom', 'node-mdftf-stairs-top']"""
door-mdftf-boston,,"Medford/Tufts - Boston Ave, College Ave","Medford/Tufts - Boston Ave, College Ave",,,42.407798,-71.117017,,,,level_in_street,2,place-mdftf,1,Medford,,,,[]
place-mfa,,Museum of Fine Arts,,,,42.337711,-71.095512,,"Huntington Ave and Ruggles St, Boston, MA",https://www.mbta.com/stops/place-mfa,,1,,1,Boston,,,,"""['70245', '70246']"""
place-mgngl,,Magoun Square,,,,42.393682,-71.106388,,"270 Lowell St, Somerville, MA 02145",https://www.mbta.com/stops/place-mgngl,,1,,1,Somerville,,,,"""['70507', '70508', 'node-767-bottom', 'node-767-top', 'node-768-bottom', 'node-768-top', 'node-mgngl-ramp-bottom', 'node-mgngl-ramp-top', 'node-mgngl-stairs-bottom', 'node-mgngl-stairs-top']"""
door-mgngl-lowell,,Magoun Square - Lowell St,Magoun Square - Lowell St,,,42.39323,-71.106048,,,,level_in_street,2,place-mgngl,1,Somerville,,,,[]
place-miltt,,Milton,,,,42.270349,-71.067266,,"1 Adams St, Milton, MA 02186",https://www.mbta.com/stops/place-miltt,,1,,1,Milton,,,,"""['70267', '70268']"""
door-miltt-trail,,Milton - Neponset Trail,Milton - Neponset Trail,,,42.270436,-71.067005,,,,level_ground,2,place-miltt,1,Milton,,,,[]
door-miltt-wharf,,"Milton - Parking, Wharf St","Milton - Parking, Wharf St",,,42.270275,-71.067246,,,,level_ground,2,place-miltt,1,Milton,,,,[]
place-mispk,,Mission Park,,,,42.333195,-71.109756,,"Huntington Ave and Mission Park Dr, Boston, MA 02115",https://www.mbta.com/stops/place-mispk,,1,,2,Boston,,,,"""['70253', '70254']"""
place-mlmnl,,Malden Center,,,,42.426632,-71.07411,CR-zone-1A,"Commercial St and Pleasant St, Malden, MA 02148",https://www.mbta.com/stops/place-mlmnl,,1,,1,Malden,,,,"""['70034', '70035', 'WR-0045-S', 'node-311-lobby', 'node-311-platform', 'node-312-lobby', 'node-312-platform', 'node-944-lobby', 'node-944-platform', 'node-945-lobby', 'node-945-platform', 'node-mlmnl-commstair-bus', 'node-mlmnl-commstair-lobby', 'node-mlmnl-crstairs-lobby', 'node-mlmnl-crstairs-platform', 'node-mlmnl-exitfarepaid', 'node-mlmnl-exitfareunpaid', 'node-mlmnl-exitstair-lobby', 'node-mlmnl-exitstair-platform', 'node-mlmnl-farepaid', 'node-mlmnl-fareunpaid', 'node-mlmnl-olstairs-lobby', 'node-mlmnl-olstairs-platform', 'node-mlmnl-ramptop']"""
door-mlmnl-commercial,,"Malden Center - Commercial St, Malden Government Center","Malden Center - Commercial St, Malden Government Center",,,42.426814,-71.073983,,,,level_ground,2,place-mlmnl,2,Malden,,,,[]
door-mlmnl-pleasant,,"Malden Center - Summer St, Pleasant St","Malden Center - Summer St, Pleasant St",,,42.42688,-71.074355,,,,level_0.5_ground,2,place-mlmnl,1,Malden,,,,[]
door-mlmnl-ramp,,"Malden Center - Commercial St, Malden Government Center (ramp)","Malden Center - Commercial St, Malden Government Center (ramp)",,,42.42689,-71.073987,,,,level_ground,2,place-mlmnl,1,Malden,,,,[]
door-mvbcl-lewis,,Maverick - Lewis Mall,Maverick - Lewis Mall,,,42.368275,-71.040539,,,,level_ground,2,place-mvbcl,1,Boston,,,,[]
door-mvbcl-square,,"Maverick - Sumner St, Maverick Square","Maverick - Sumner St, Maverick Square",,,42.369193,-71.0395,,,,level_in_street,2,place-mvbcl,1,Boston,,,,[]
place-newtn,,Newton Highlands,,,,42.322381,-71.205509,,"60 Station Ave, Newton, MA 02461",https://www.mbta.com/stops/place-newtn,,1,,1,Newton,,,,"""['70168', '70169', '9070168', 'node-newtn-hyde-platform', 'node-newtn-hyde-stairs', 'node-newtn-lake-platform', 'node-newtn-walnut-platform']"""
door-newtn-hyde,,Newton Highlands - Hyde St,Newton Highlands - Hyde St,,,42.323498,-71.204336,,,,level_1_in_street,2,place-newtn,2,Newton,,,,[]
door-newtn-lake,,"Newton Highlands - Lake Ave, Walnut St","Newton Highlands - Lake Ave, Walnut St",,,42.322676,-71.205617,,,,level_1_in_street,2,place-newtn,1,Newton,,,,[]
door-newtn-walnut,,"Newton Highlands - Walnut St, Station Ave, Buses","Newton Highlands - Walnut St, Station Ave, Buses",,,42.32204,-71.206245,,,,level_1_in_street,2,place-newtn,1,Newton,,,,[]
place-newto,,Newton Centre,,,,42.329443,-71.192414,,"72 Union St, Newton, MA 02459",https://www.mbta.com/stops/place-newto,,1,,1,Newton,,,,"""['70170', '70171', 'node-newto-braeland-platform', 'node-newto-herrick-landing', 'node-newto-langley-platform', 'node-newto-ramp-landing', 'node-newto-ramp-platform', 'node-newto-uniones-platform', 'node-newto-unionws-platform']"""
door-newto-braeland,,"Newton Centre - Braeland Ave, Langley Rd","Newton Centre - Braeland Ave, Langley Rd",,,42.329349,-71.192296,,,,level_1_in_street,2,place-newto,2,Newton,,,,[]
door-newto-herrick,,"Newton Centre - Union St, Herrick Rd","Newton Centre - Union St, Herrick Rd",,,42.329135,-71.193355,,,,level_1_in_street,2,place-newto,2,Newton,,,,[]
door-newto-langley,,Newton Centre - Langley Rd,Newton Centre - Langley Rd,,,42.329974,-71.19147,,,,level_1_in_street,2,place-newto,1,Newton,,,,[]
door-newto-uniones,,Newton Centre - Union St (East stairs),Newton Centre - Union St (East stairs),,,42.32962,-71.192341,,,,level_1_in_street,2,place-newto,2,Newton,,,,[]
door-newto-unionr,,Newton Centre - Union St (Ramp),Newton Centre - Union St (Ramp),,,42.329357,-71.193269,,,,level_1_in_street,2,place-newto,1,Newton,,,,[]
door-newto-unionws,,Newton Centre - Union St (West stairs),Newton Centre - Union St (West stairs),,,42.329494,-71.192643,,,,level_1_in_street,2,place-newto,2,Newton,,,,[]
BNT-0000-B1,,North Station - Causeway St opp Beverly St,North Station - Commuter Rail Shuttle - Causeway St opp Beverly St,,Commuter Rail Shuttle,42.366034,-71.060356,,,,,0,place-north,1,Boston,Causeway Street,Beverly Street,3.0,[]
door-north-causewaye,,North Station - Causeway St (Elevator),North Station - Causeway St (Elevator),,,42.365639,-71.060472,,,,level_in_street,2,place-north,1,Boston,,,,[]
door-north-causewayexite,,North Station - Causeway St,North Station - Causeway St,,,42.365568,-71.060358,,,,level_in_street,2,place-north,2,Boston,,,,"""['door-north-causewayexitw']"""
door-north-causeways,,"North Station - Causeway St, Haverhill St","North Station - Causeway St, Haverhill St",,,42.365496,-71.06049,,,,level_in_street,2,place-north,2,Boston,,,,[]
door-north-crcanal,,"North Station - Causeway St, Canal St","North Station - Causeway St, Canal St",,,42.365975,-71.061759,,,,level_in_street,2,place-north,1,Boston,,,,[]
door-north-crcauseway,,North Station - Causeway St (East),North Station - Causeway St (East),,,42.366404,-71.061324,,,,level_in_street,2,place-north,1,Boston,,,,[]
door-north-crcausewayw,,North Station - Causeway St (West),North Station - Causeway St (West),,,42.365659,-71.062627,,,,level_in_street,2,place-north,1,Boston,,,,[]
door-north-crnashua,,North Station - Nashua St,North Station - Nashua St,,,42.366019,-71.062951,,,,level_in_street,2,place-north,1,Boston,,,,[]
door-north-tdgarden,,North Station - TD Garden passageway (Elevator),North Station - TD Garden passageway (Elevator),,,42.365833,-71.060892,,,,level_in_street,2,place-north,1,Boston,,,,[]
door-north-valenti,,North Station - Valenti Way,North Station - Valenti Way,,,42.364652,-71.059541,,,,level_in_street,2,place-north,1,Boston,,,,"""['door-north-valentiexite', 'door-north-valentiexitw']"""
place-nqncy,,North Quincy,,,,42.275275,-71.029583,,"Hancock St and Hunt St, Quincy, MA 02171",https://www.mbta.com/stops/place-nqncy,,1,,1,Quincy,,,,"""['70097', '70098', 'node-325-lobby', 'node-325-platform', 'node-326-lobby', 'node-326-platform', 'node-327-lobby', 'node-327-street', 'node-383-lobby', 'node-383-street', 'node-897-lobby', 'node-897-street', 'node-898-lobby', 'node-898-street', 'node-899-lobby', 'node-899-platform', 'node-900-lobby', 'node-900-platform', 'node-nqncy-hstair-lobby', 'node-nqncy-hstair-street', 'node-nqncy-nhfarepaid', 'node-nqncy-nhfareunpaid', 'node-nqncy-nhpstair-lobby', 'node-nqncy-nhpstair-platform', 'node-nqncy-nstair-lobby', 'node-nqncy-nstair-street', 'node-nqncy-senterramp-bus', 'node-nqncy-senterstair-bus', 'node-nqncy-sfarepaid', 'node-nqncy-sfareunpaid', 'node-nqncy-spstair-lobby', 'node-nqncy-spstair-platform']"""
door-nqncy-hancock,,North Quincy - Hancock St,North Quincy - Hancock St,,,42.276631,-71.030922,,,,level_ground,2,place-nqncy,1,Quincy,,,,[]
door-nqncy-newport,,North Quincy - Newport Ave Extension,North Quincy - Newport Ave Extension,,,42.276483,-71.031184,,,,level_ground,2,place-nqncy,1,Quincy,,,,[]
door-nqncy-squantum,,North Quincy - West Squantum St,North Quincy - West Squantum St,,,42.27521,-71.029243,,,,level_1_ground,2,place-nqncy,1,Quincy,,,,[]
place-nubn,,Nubian,,,,42.329544,-71.083982,,"Washington St and Dudley St, Roxbury, MA",https://www.mbta.com/stops/place-nubn,,1,,1,Boston,,,,[]
place-nuniv,,Northeastern University,,,,42.340401,-71.088806,,"Huntington Ave and Opera Pl, Boston, MA 02115",https://www.mbta.com/stops/place-nuniv,,1,,1,Boston,,,,"""['70243', '70244']"""
place-ogmnl,,Oak Grove,,,,42.43668,-71.071097,CR-zone-1A,"Washington St and Winter St, Malden, MA 02148",https://www.mbta.com/stops/place-ogmnl,,1,,1,Malden,,,,"""['70036', 'Oak Grove-01', 'Oak Grove-02', 'WR-0053-S', 'node-102-lobby', 'node-102-street', 'node-103-lobby', 'node-103-platform', 'node-104-lobby', 'node-104-street', 'node-105-crplatform', 'node-105-lobby', 'node-743-lobby', 'node-743-platform', 'node-744-lobby', 'node-745-lobby', 'node-745-street', 'node-746-lobby', 'node-746-platform', 'node-800-crplatform', 'node-800-lobby', 'node-800-street', 'node-801-lobby', 'node-801-platform', 'node-ogmnl-banksstair-lobby', 'node-ogmnl-banksstair-street', 'node-ogmnl-crstair-crplatform', 'node-ogmnl-crstair-lobby', 'node-ogmnl-farepaid', 'node-ogmnl-fareunpaid', 'node-ogmnl-olstair-lobby', 'node-ogmnl-olstair-platform', 'node-ogmnl-washstair-lobby', 'node-ogmnl-washstair-street']"""
door-ogmnl-banks,,Oak Grove - Banks Place,Oak Grove - Banks Place,,,42.436859,-71.070343,,,,level_ground,2,place-ogmnl,1,Malden,,,,[]
door-ogmnl-wash,,Oak Grove - Washington St,Oak Grove - Washington St,,,42.436676,-71.071152,,,,level_in_street,2,place-ogmnl,2,Malden,,,,[]
door-ogmnl-washel,,Oak Grove - Washington St (Elevator),Oak Grove - Washington St (Elevator),,,42.436947,-71.071056,,,,level_ground,2,place-ogmnl,1,Malden,,,,[]
place-orhte,,Orient Heights,,,,42.386867,-71.004736,,"1000 Bennington St, East Boston, MA 02128",https://www.mbta.com/stops/place-orhte,,1,,1,Boston,,,,"""['70051', '70052', 'node-440-bridge', 'node-440-platform', 'node-441-bridge', 'node-441-platform', 'node-712-bridge', 'node-712-platform', 'node-713-bridge', 'node-713-street', 'node-714-bridge', 'node-714-platform', 'node-715-bridge', 'node-715-street', 'node-orhte-benn-farepaid', 'node-orhte-benn-fareunpaid', 'node-orhte-ibpaidstairs-bridge', 'node-orhte-ibpaidstairs-platform', 'node-orhte-ibunpaidstairs-bridge', 'node-orhte-ibunpaidstairs-street', 'node-orhte-obpaidstairs-bridge', 'node-orhte-obpaidstairs-platform', 'node-orhte-obunpaidstairs-bridge', 'node-orhte-obunpaidstairs-street', 'node-orhte-sara-farepaid', 'node-orhte-sara-fareunpaid']"""
door-orhte-benning,,Orient Heights - Bennington St,Orient Heights - Bennington St,,,42.38708,-71.004664,,,,level_ground,2,place-orhte,1,Boston,,,,[]
door-orhte-saratoga,,"Orient Heights - Saratoga St, Barnes Ave","Orient Heights - Saratoga St, Barnes Ave",,,42.386862,-71.004364,,,,level_ground,2,place-orhte,1,Boston,,,,[]
place-pktrm,,Park Street,,,,42.356395,-71.062424,,"Tremont St and Winter St, Boston, MA 02108",https://www.mbta.com/stops/place-pktrm,,1,,1,Boston,,,,"""['70075', '70076', '70196', '70197', '70198', '70199', '70200', '71199', 'node-320-lobby', 'node-373-platform', 'node-375-platform', 'node-804-lobby', 'node-808-gl', 'node-808-rl', 'node-812-platform', 'node-812-under', 'node-823-platform', 'node-823-under', 'node-978-lobby', 'node-979-gl', 'node-979-rl', 'node-pktrm-804paid', 'node-pktrm-804unpaid', 'node-pktrm-concourse', 'node-pktrm-cpebstairs-gl', 'node-pktrm-cpebstairs-rl', 'node-pktrm-cpwbstairs-gl', 'node-pktrm-cpwbstairs-rl', 'node-pktrm-ebparkstairs-lobby', 'node-pktrm-ebupassstairs-platform', 'node-pktrm-ebupassstairs-under', 'node-pktrm-midupassstairs-platform', 'node-pktrm-midupassstairs-under', 'node-pktrm-nbexitpaid', 'node-pktrm-nbexitunpaid', 'node-pktrm-nbwinterstairs-lobby', 'node-pktrm-nbwinterstairs-platform', 'node-pktrm-sbexitpaid', 'node-pktrm-sbexitunpaid', 'node-pktrm-sbwbstairs-gl', 'node-pktrm-sbwbstairs-rl', 'node-pktrm-sbwinterstairs-lobby', 'node-pktrm-sbwinterstairs-platform', 'node-pktrm-stair14-gl', 'node-pktrm-stair14-rl', 'node-pktrm-stair17-lobby', 'node-pktrm-stair4-lobby', 'node-pktrm-stair4-platform', 'node-pktrm-stair5-gl', 'node-pktrm-stair5-rl', 'node-pktrm-stair7-gl', 'node-pktrm-stair7-rl', 'node-pktrm-stair8-gl', 'node-pktrm-stair8-rl', 'node-pktrm-tremefare-paid', 'node-pktrm-tremefare-unpaid', 'node-pktrm-tremontstairs-lobby', 'node-pktrm-tremstairfare-paid', 'node-pktrm-tremstairfare-unpaid', 'node-pktrm-tremwfare-paid', 'node-pktrm-tremwfare-unpaid', 'node-pktrm-wbparkstairs-lobby', 'node-pktrm-wbupassstairs-platform', 'node-pktrm-wbupassstairs-under', 'node-pktrm-westfare-paid', 'node-pktrm-westfare-unpaid', 'node-pktrm-weststairs-lobby', 'node-pktrm-wintfare-paid', 'node-pktrm-wintfare-unpaid']"""
door-pktrm-elevatoreb,,Park Street - Tremont St to Lobby (Elevator 804),Park Street - Tremont St to Lobby (Elevator 804),,,42.356172,-71.062239,,,,level_in_street,2,place-pktrm,1,Boston,,,,[]
door-pktrm-elevatorwb,,"Park Street - Elevator, Tremont St","Park Street - Elevator, Tremont St",,,42.356331,-71.062675,,,,level_in_street,2,place-pktrm,1,Boston,,,,[]
door-pktrm-exitalewife,,Park Street - Escalator to Tremont St (North),Park Street - Escalator to Tremont St (North),,,42.356504,-71.061904,,,,level_in_street,2,place-pktrm,2,Boston,,,,[]
door-pktrm-exitashbrain,,Park Street - Escalator to Tremont St (South),Park Street - Escalator to Tremont St (South),,,42.355976,-71.062427,,,,level_in_street,2,place-pktrm,2,Boston,,,,[]
door-pktrm-tremonte,,"Park Street - Tremont St, Boston Common","Park Street - Tremont St, Boston Common",,,42.35637,-71.062321,,,,level_in_street,2,place-pktrm,2,Boston,,,,[]
door-pktrm-tremontw,,"Park Street - Boston Common, Tremont St","Park Street - Boston Common, Tremont St",,,42.35649,-71.062531,,,,level_in_street,2,place-pktrm,2,Boston,,,,[]
door-pktrm-tremstair,,Park Street - Tremont St,Park Street - Tremont St,,,42.356069,-71.062334,,,,level_in_street,2,place-pktrm,2,Boston,,,,[]
door-pktrm-west,,Park Street - Boston Common,Park Street - Boston Common,,,42.355456,-71.063402,,,,level_in_street,2,place-pktrm,2,Boston,,,,[]
door-pktrm-winter,,"Park Street - Tremont St, Winter St","Park Street - Tremont St, Winter St",,,42.356397,-71.062008,,,,level_in_street,2,place-pktrm,2,Boston,,,,[]
place-portr,,Porter,,,,42.3884,-71.119149,CR-zone-1A,"1899 Massachusetts Ave, Cambridge, MA 02140",https://www.mbta.com/stops/place-portr,,1,,1,Cambridge,,,,"""['70065', '70066', 'FR-0034', 'FR-0034-01', 'FR-0034-02', 'node-504-lobby', 'node-504-street', 'node-505-lobby', 'node-505-street', 'node-506-nbplatform', 'node-506-sbplatform', 'node-507-nbplatform', 'node-507-sbplatform', 'node-509-lobby', 'node-509-sbplatform', 'node-510-lobby', 'node-510-sbplatform', 'node-511-lobby', 'node-511-sbplatform', 'node-982-lobby', 'node-983-lobby', 'node-983-nbplatform', 'node-983-sbplatform', 'node-985-lobby', 'node-986-crplatform', 'node-986-lobby', 'node-987-lobby', 'node-987-nbplatform', 'node-987-sbplatform', 'node-portr-506stairs-nbplatform', 'node-portr-506stairs-sbplatform', 'node-portr-507stairs-nbplatform', 'node-portr-507stairs-sbplatform', 'node-portr-crramp-elevator', 'node-portr-crramp-minihigh', 'node-portr-crstairs-crplatform', 'node-portr-crstairs-lobby', 'node-portr-eaststairs-crplatform', 'node-portr-farepaid', 'node-portr-fareunpaid', 'node-portr-lobbyrlstairs-lobby', 'node-portr-lobbyrlstairs-sbplatform', 'node-portr-massavestairs-crplatform', 'node-portr-massavestairs-lobby', 'node-portr-somervilleavestairs-lobby', 'node-portr-somervilleavestairs-street', 'node-portr-weststairs-crplatform', 'node-portr-weststairs-street']"""
door-portr-cracross,,"Porter - Massachusetts Ave (West), Buses","Porter - Massachusetts Ave (West), Buses",,,42.388604,-71.119752,,,,level_in_street,2,place-portr,2,Cambridge,,,,[]
door-portr-crtransfer,,"Porter - Massachusetts Ave (East), Buses","Porter - Massachusetts Ave (East), Buses",,,42.388254,-71.119099,,,,level_in_street,2,place-portr,2,Cambridge,,,,[]
door-portr-elevator982,,"Porter - Somerville Ave, Massachusetts Ave (Elevator)","Porter - Somerville Ave, Massachusetts Ave (Elevator)",,,42.388288,-71.118866,,,,level_in_street,2,place-portr,1,Cambridge,,,,[]
door-portr-elevator985,,Porter - Somerville Ave (Elevator),Porter - Somerville Ave (Elevator),,,42.388389,-71.118992,,,,level_in_street,2,place-portr,1,Cambridge,,,,[]
door-portr-escal,,"Porter - Somerville Ave, Massachusetts Ave","Porter - Somerville Ave, Massachusetts Ave",,,42.388475,-71.119212,,,,level_in_street,2,place-portr,2,Cambridge,,,,[]
place-prmnl,,Prudential,,,,42.34557,-71.081696,,"Huntington Ave and Belvidere St, Boston, MA 02199",https://www.mbta.com/stops/place-prmnl,,1,,1,Boston,,,,"""['70239', '70240', 'node-150-lobby', 'node-150-street', 'node-151-lobby', 'node-151-street', 'node-152-lobby', 'node-152-platform', 'node-503-lobby', 'node-917-lobby', 'node-917-street', 'node-920-lobby', 'node-920-platform', 'node-921-lobby', 'node-921-platform', 'node-prmnl-152stair-platform', 'node-prmnl-920ramp-platform', 'node-prmnl-920stair-platform', 'node-prmnl-921ramp-platform', 'node-prmnl-921stair-platform', 'node-prmnl-ebstair-lobby', 'node-prmnl-ebstair-platform', 'node-prmnl-farepaid', 'node-prmnl-fareunpaid', 'node-prmnl-huntstair-lobby', 'node-prmnl-prustair-lobby', 'node-prmnl-prustair-street', 'node-prmnl-wbstair-lobby', 'node-prmnl-wbstair-platform']"""
door-prmnl-huntington,,Prudential - Huntington Ave,Prudential - Huntington Ave,,,42.345791,-71.081609,,,,level_in_street,2,place-prmnl,2,Boston,,,,[]
door-prmnl-prudential,,Prudential - Prudential Center,Prudential - Prudential Center,,,42.345632,-71.081223,,,,level_0_building,2,place-prmnl,1,Boston,,,,[]
place-qamnl,,Quincy Adams,,,,42.233391,-71.007153,,"Burgin Pkwy and Centre St, Quincy, MA 02169",https://www.mbta.com/stops/place-qamnl,,1,,1,Quincy,,,,"""['70103', '70104', 'node-344-bottom', 'node-344-top', 'node-345-bottom', 'node-345-top', 'node-346-bottom', 'node-346-top', 'node-347-bottom', 'node-347-top', 'node-348-bottom', 'node-348-top', 'node-736-bottom', 'node-736-top', 'node-805-bottom', 'node-805-top', 'node-806-fifth', 'node-806-fourth', 'node-806-ground', 'node-806-second', 'node-806-sixth', 'node-806-third', 'node-807-fifth', 'node-807-fourth', 'node-807-ground', 'node-807-second', 'node-807-sixth', 'node-807-third', 'node-qamnl-busway-centerdoor', 'node-qamnl-busway-northdoor', 'node-qamnl-busway-southdoor', 'node-qamnl-farepaid', 'node-qamnl-fareunpaid', 'node-qamnl-fifth-lobby', 'node-qamnl-fourth-lobby', 'node-qamnl-ngaragestairs-fifth', 'node-qamnl-ngaragestairs-fourth', 'node-qamnl-ngaragestairs-ground', 'node-qamnl-ngaragestairs-second', 'node-qamnl-ngaragestairs-sixth', 'node-qamnl-ngaragestairs-third', 'node-qamnl-northstairs-bottom', 'node-qamnl-northstairs-top', 'node-qamnl-second-lobby', 'node-qamnl-sgaragestairs-fifth', 'node-qamnl-sgaragestairs-fourth', 'node-qamnl-sgaragestairs-ground', 'node-qamnl-sgaragestairs-second', 'node-qamnl-sgaragestairs-sixth', 'node-qamnl-sgaragestairs-third', 'node-qamnl-sixth-lobby', 'node-qamnl-southstairs-bottom', 'node-qamnl-southstairs-top', 'node-qamnl-third-lobby']"""
door-qamnl-burgin,,Quincy Adams - Burgin Parkway,Quincy Adams - Burgin Parkway,,,42.233317,-71.007363,,,,level_ground,2,place-qamnl,1,Quincy,,,,[]
door-qamnl-centre,,Quincy Adams - Centre Street,Quincy Adams - Centre Street,,,42.231657,-71.008542,,,,level_in_street,2,place-qamnl,1,Quincy,,,,[]
door-qamnl-indep,,Quincy Adams - Independence Avenue,Quincy Adams - Independence Avenue,,,42.233436,-71.006137,,,,level_independence_ave,2,place-qamnl,1,Quincy,,,,[]
door-qamnl-pickup,,Quincy Adams - Pick-up/Drop-off,Quincy Adams - Pick-up/Drop-off,,,42.232705,-71.007425,,,,level_ground,2,place-qamnl,1,Quincy,,,,[]
place-qnctr,,Quincy Center,,,,42.251809,-71.005409,CR-zone-1,"175 Thomas E Burgin Pkwy, Quincy, MA 02169",https://www.mbta.com/stops/place-qnctr,,1,,1,Quincy,,,,"""['70101', '70102', 'MM-0079-S', 'node-330-entrance', 'node-330-platform', 'node-810-entrance', 'node-810-platform', 'node-896-entrance', 'node-896-platform', 'node-qnctr-burgin-door', 'node-qnctr-burginramp-cr', 'node-qnctr-center-lobby', 'node-qnctr-crstair-entrance', 'node-qnctr-crstair-platform', 'node-qnctr-elevfarepaid', 'node-qnctr-elevfareunpaid', 'node-qnctr-farepaid', 'node-qnctr-fareunpaid', 'node-qnctr-rdstair-entrance', 'node-qnctr-rdstair-platform']"""
door-qnctr-burgin,,Quincy Center - Burgin Parkway (Stairs),Quincy Center - Burgin Parkway (Stairs),,,42.251403,-71.005508,,,,level_1_in_street,2,place-qnctr,2,Quincy,,,,[]
door-qnctr-burginramp,,Quincy Center - Burgin Parkway (Ramp),Quincy Center - Burgin Parkway (Ramp),,,42.25087,-71.005139,,,,level_1_in_street,2,place-qnctr,1,Quincy,,,,[]
door-qnctr-busway,,Quincy Center - Hancock St,Quincy Center - Hancock St,,,42.251586,-71.005003,,,,level_ground,2,place-qnctr,1,Quincy,,,,[]
place-rbmnl,,Revere Beach,,,,42.407843,-70.992533,,"220 Shirley Ave, Revere, MA",https://www.mbta.com/stops/place-rbmnl,,1,,1,Revere,,,,"""['70057', '70058', 'node-884-lobby', 'node-884-platform', 'node-885-lobby', 'node-885-platform', 'node-rbmnl-884stair-lobby', 'node-rbmnl-884stair-platform', 'node-rbmnl-885stair-lobby', 'node-rbmnl-885stair-platform', 'node-rbmnl-beachfarepaid', 'node-rbmnl-beachfareunpaid', 'node-rbmnl-beachstair', 'node-rbmnl-farepaid', 'node-rbmnl-fareunpaid', 'node-rbmnl-oceanstair', 'node-rbmnl-shirleyfarepaid', 'node-rbmnl-shirleyfareunpaid', 'node-rbmnl-shirleystair']"""
door-rbmnl-beach,,Revere Beach - Beach St,Revere Beach - Beach St,,,42.408455,-70.99255,,,,level_in_street,2,place-rbmnl,2,Revere,,,,[]
door-rbmnl-main,,"Revere Beach - Ocean Ave, Shirley Ave","Revere Beach - Ocean Ave, Shirley Ave",,,42.40782,-70.992633,,,,level_in_street,2,place-rbmnl,1,Revere,,,,[]
door-rbmnl-ocean,,Revere Beach - 300 Ocean Ave,Revere Beach - 300 Ocean Ave,,,42.4079,-70.99211,,,,level_-0.5_building,2,place-rbmnl,2,Revere,,,,[]
door-rbmnl-shirley,,Revere Beach - Shirley Ave,Revere Beach - Shirley Ave,,,42.407331,-70.992363,,,,level_in_street,2,place-rbmnl,2,Revere,,,,[]
place-rcmnl,,Roxbury Crossing,,,,42.331397,-71.095451,,"1400 Tremont St, Roxbury, MA",https://www.mbta.com/stops/place-rcmnl,,1,,1,Boston,,,,"""['70008', '70009', 'node-rcmnl-134-lobby', 'node-rcmnl-134-platform', 'node-rcmnl-847-lobby', 'node-rcmnl-847-platform', 'node-rcmnl-farepaid', 'node-rcmnl-fareunpaid', 'node-rcmnl-stairs-lobby', 'node-rcmnl-stairs-platform']"""
door-rcmnl-tremont,,Roxbury Crossing - Tremont St,Roxbury Crossing - Tremont St,,,42.331415,-71.09548,,,,level_in_street,2,place-rcmnl,1,Boston,,,,[]
door-river-estairs,,"Riverside - Grove Street, Parking","Riverside - Grove Street, Parking",,,42.337258,-71.252523,,,,level_ground,2,place-river,2,Newton,,,,[]
door-river-ramp,,"Riverside - Buses, Parking (Ramp)","Riverside - Buses, Parking (Ramp)",,,42.33727,-71.252948,,,,level_ground,2,place-river,1,Newton,,,,[]
door-river-wstairs,,"Riverside - Buses, Parking (Stairs)","Riverside - Buses, Parking (Stairs)",,,42.337328,-71.252858,,,,level_ground,2,place-river,2,Newton,,,,[]
place-rsmnl,,Reservoir,,,,42.335088,-71.148758,,"401 Chestnut Hill Ave, Brookline, MA 02445",https://www.mbta.com/stops/place-rsmnl,,1,,1,Brookline,,,,"""['70174', '70175', 'node-rsmnl-eramp-platform', 'node-rsmnl-estairs-platform', 'node-rsmnl-wramp-platform', 'node-rsmnl-wstairs-platform']"""
door-rsmnl-eramp,,"Reservoir - Chestnut Hill Ave, Cleveland Circle (Ramp)","Reservoir - Chestnut Hill Ave, Cleveland Circle (Ramp)",,,42.334975,-71.148607,,,,level_ground,2,place-rsmnl,1,Brookline,,,,[]
door-rsmnl-estairs,,"Reservoir - Chestnut Hill Ave, Buses (Park St & North)","Reservoir - Chestnut Hill Ave, Buses (Park St & North)",,,42.335051,-71.1487,,,,level_ground,2,place-rsmnl,2,Brookline,,,,[]
door-rsmnl-wramp,,Reservoir - Cleveland Circle (Ramp),Reservoir - Cleveland Circle (Ramp),,,42.335271,-71.14981,,,,level_in_street,2,place-rsmnl,1,Brookline,,,,[]
door-rsmnl-wstairs,,"Reservoir - Chestnut Hill Ave, Buses (Riverside)","Reservoir - Chestnut Hill Ave, Buses (Riverside)",,,42.335157,-71.148775,,,,level_ground,2,place-rsmnl,2,Brookline,,,,[]
place-rugg,,Ruggles,,,,42.336377,-71.088961,CR-zone-1A,"1150 Tremont St, Roxbury, MA 02120",https://www.mbta.com/stops/place-rugg,,1,,1,Boston,,,,"""['70010', '70011', 'NEC-2265', 'NEC-2265-01', 'NEC-2265-02', 'NEC-2265-03', 'node-135-busway', 'node-135-lobby', 'node-136-lobby', 'node-136-platform', 'node-137-lobby', 'node-137-platform', 'node-138-bottom', 'node-138-top', 'node-728-lobby', 'node-728-street', 'node-848-busway', 'node-848-lobby', 'node-849-lobby', 'node-849-platform', 'node-850-lobby', 'node-850-platform', 'node-851-bottom', 'node-851-top', 'node-rugg-bus1stairs-busway', 'node-rugg-bus1stairs-lobby', 'node-rugg-bus2stairs-busway', 'node-rugg-bus2stairs-lobby', 'node-rugg-columbusstairs-top', 'node-rugg-crstairs-lobby', 'node-rugg-crstairs-platform', 'node-rugg-farepaid', 'node-rugg-fareunpaid', 'node-rugg-forsythstairs-bottom', 'node-rugg-forsythstairs-top', 'node-rugg-olexit-farepaid', 'node-rugg-olexit-fareunpaid', 'node-rugg-olexit-platform', 'node-rugg-olnstairs-lobby', 'node-rugg-olnstairs-platform', 'node-rugg-olsstairs-lobby', 'node-rugg-olsstairs-platform', 'node-rugg-track2ramp-bottom', 'node-rugg-track2ramp-top']"""
door-rugg-buses,,"Ruggles - Columbus Ave, Buses","Ruggles - Columbus Ave, Buses",,,42.336473,-71.089194,,,,level_ground,2,place-rugg,1,Boston,,,,[]
door-rugg-columbus,,"Ruggles - Columbus Ave, Tremont St","Ruggles - Columbus Ave, Tremont St",,,42.335873,-71.088906,,,,level_in_street,2,place-rugg,1,Boston,,,,[]
door-rugg-forsyth,,"Ruggles - Northeastern, Forsyth St","Ruggles - Northeastern, Forsyth St",,,42.33701,-71.089421,,,,level_in_street,2,place-rugg,1,Boston,,,,[]
door-rugg-ruggles,,Ruggles - Ruggles St,Ruggles - Ruggles St,,,42.335891,-71.090358,,,,level_1_in_street,2,place-rugg,2,Boston,,,,[]
door-rugg-track2,,Ruggles - Columbus Ave (Commuter Rail - Track 2),Ruggles - Columbus Ave (Commuter Rail - Track 2),,,42.338187,-71.087078,,,,level_in_street,2,place-rugg,1,Boston,,,,[]
door-rugg-upper,,Ruggles - Upper Busway,Ruggles - Upper Busway,,,42.336821,-71.089501,,,,level_1_ground,2,place-rugg,1,Boston,,,,[]
place-rvrwy,,Riverway,,,,42.331684,-71.111931,,"South Huntington Ave and Huntington Ave, Boston, MA",https://www.mbta.com/stops/place-rvrwy,,1,,2,Boston,,,,"""['70255', '70256']"""
place-sbmnl,,Stony Brook,,,,42.317062,-71.104248,,"100 Boylston St, Jamaica Plain, MA",https://www.mbta.com/stops/place-sbmnl,,1,,1,Boston,,,,"""['70004', '70005', 'node-sbmnl-132-lobby', 'node-sbmnl-132-platform', 'node-sbmnl-845-lobby', 'node-sbmnl-845-platform', 'node-sbmnl-farepaid', 'node-sbmnl-fareunpaid', 'node-sbmnl-stairs-lobby', 'node-sbmnl-stairs-platform']"""
door-sbmnl-main,,Stony Brook - Amory St,Stony Brook - Amory St,,,42.3171,-71.104216,,,,level_in_street,2,place-sbmnl,1,Boston,,,,[]
place-sdmnl,,Suffolk Downs,,,,42.390501,-70.997123,,"1230 Bennington St, East Boston, MA 02128",https://www.mbta.com/stops/place-sdmnl,,1,,1,Boston,,,,"""['70053', '70054', 'node-sdmnl-benn-farepaid', 'node-sdmnl-benn-fareunpaid', 'node-sdmnl-benn-ramp', 'node-sdmnl-benn-stairs', 'node-sdmnl-pib-bridge', 'node-sdmnl-pib-platform', 'node-sdmnl-pibstair-bridge', 'node-sdmnl-pibstair-platform', 'node-sdmnl-pob-bridge', 'node-sdmnl-pob-platform', 'node-sdmnl-pobstair-bridge', 'node-sdmnl-pobstair-platform', 'node-sdmnl-unib-bridge', 'node-sdmnl-unib-street', 'node-sdmnl-unob-bridge', 'node-sdmnl-unob-street', 'node-sdmnl-wall-farepaid', 'node-sdmnl-wall-fareunpaid']"""
door-sdmnl-benning,,Suffolk Downs - Bennington St,Suffolk Downs - Bennington St,,,42.390367,-70.996964,,,,level_in_street,2,place-sdmnl,1,Boston,,,,[]
door-sdmnl-walley,,Suffolk Downs - Walley St,Suffolk Downs - Walley St,,,42.39064,-70.997388,,,,level_in_street,2,place-sdmnl,1,Boston,,,,[]
place-shmnl,,Savin Hill,,,,42.31129,-71.053331,,"125 Savin Hill Ave, Dorchester, MA 02124",https://www.mbta.com/stops/place-shmnl,,1,,1,Boston,,,,"""['70087', '70088', 'node-423-lobby', 'node-423-platform', 'node-946-lobby', 'node-946-platform', 'node-947-lobby', 'node-shmnl-endstair-lobby', 'node-shmnl-endstair-platform', 'node-shmnl-platstair-lobby', 'node-shmnl-platstair-platform', 'node-shmnl-sh-farepaid', 'node-shmnl-sh-fareunpaid', 'node-shmnl-syd-farepaid', 'node-shmnl-syd-fareunpaid', 'node-shmnl-sydstair-lobby']"""
door-shmnl-savin,,Savin Hill - Savin Hill Ave,Savin Hill - Savin Hill Ave,,,42.311299,-71.053302,,,,level_1_in_street,2,place-shmnl,1,Boston,,,,[]
door-shmnl-sydney,,Savin Hill - South Sydney St,Savin Hill - South Sydney St,,,42.310856,-71.053701,,,,level_ground,2,place-shmnl,1,Boston,,,,[]
place-smmnl,,Shawmut,,,,42.293126,-71.065738,,"Dayton St and Clementine Park, Dorchester, MA 02124",https://www.mbta.com/stops/place-smmnl,,1,,1,Boston,,,,"""['70091', '70092', 'node-smmnl-953-lobby', 'node-smmnl-953-platform', 'node-smmnl-954-lobby', 'node-smmnl-954-platform', 'node-smmnl-farepaid', 'node-smmnl-fareunpaid', 'node-smmnl-nbstairs-lobby', 'node-smmnl-nbstairs-platform', 'node-smmnl-sbstairs-lobby', 'node-smmnl-sbstairs-platform']"""
door-smmnl-clemen,,"Shawmut - Clementine Park, Centre St","Shawmut - Clementine Park, Centre St",,,42.293067,-71.065784,,,,level_ground,2,place-smmnl,1,Boston,,,,[]
place-sougr,,South Street,,,,42.3396,-71.157661,,,https://www.mbta.com/stops/place-sougr,,1,,2,Boston,,,,"""['70110', '70111']"""
place-spmnl,,Science Park/West End,,,,42.366664,-71.067666,,"Leverett Circle and Nashua St, Boston, MA 02114",https://www.mbta.com/stops/place-spmnl,,1,,1,Boston,,,,"""['70207', '70208', 'node-980-lobby', 'node-980-platform', 'node-980-street', 'node-981-lobby', 'node-981-platform', 'node-981-street', 'node-spmnl-ibstairs-lobby', 'node-spmnl-ibstairs-platform', 'node-spmnl-mfarepaid', 'node-spmnl-mfareunpaid', 'node-spmnl-nashuastairs-top', 'node-spmnl-nfarepaid', 'node-spmnl-nfareunpaid', 'node-spmnl-obrienstairs-top', 'node-spmnl-obstairs-lobby', 'node-spmnl-obstairs-platform', 'node-spmnl-ofarepaid', 'node-spmnl-ofareunpaid', 'node-spmnl-sfarepaid', 'node-spmnl-sfareunpaid']"""
door-spmnl-nashua,,"Science Park/West End - Nashua St, Spaulding Rehab Hospital (Stairs)","Science Park/West End - Nashua St, Spaulding Rehab Hospital (Stairs)",,,42.36687,-71.067757,,,,level_ground,2,place-spmnl,2,Boston,,,,[]
door-spmnl-nashuael,,"Science Park/West End - Nashua St, Spaulding Rehab Hospital (Elevator)","Science Park/West End - Nashua St, Spaulding Rehab Hospital (Elevator)",,,42.366856,-71.067733,,,,level_ground,2,place-spmnl,1,Boston,,,,[]
door-spmnl-obrien,,"Science Park/West End - Monsignor O'Brien Hwy, Museum of Science (Stairs)","Science Park/West End - Monsignor O'Brien Hwy, Museum of Science (Stairs)",,,42.36673,-71.067998,,,,level_ground,2,place-spmnl,2,Boston,,,,[]
door-spmnl-obrienel,,"Science Park/West End - Monsignor O'Brien Hwy, Museum of Science (Elevator)","Science Park/West End - Monsignor O'Brien Hwy, Museum of Science (Elevator)",,,42.36665,-71.067966,,,,level_ground,2,place-spmnl,1,Boston,,,,[]
place-sstat,,South Station,,,,42.352271,-71.055242,CR-zone-1A,"700 Atlantic Ave, Boston, MA 02110",https://www.mbta.com/stops/place-sstat,,1,,1,Boston,,,,"""['70079', '70080', '74611', '74617', 'NEC-2287', 'NEC-2287-01', 'NEC-2287-02', 'NEC-2287-03', 'NEC-2287-04', 'NEC-2287-05', 'NEC-2287-06', 'NEC-2287-07', 'NEC-2287-08', 'NEC-2287-09', 'NEC-2287-10', 'NEC-2287-11', 'NEC-2287-12', 'NEC-2287-13', 'node-382-lobby', 'node-382-rl', 'node-386-lobby', 'node-387-lobby', 'node-388-lobby', 'node-388-sl', 'node-389-lobby', 'node-389-rl', 'node-390-rl', 'node-390-sl', 'node-398-rl', 'node-398-sl', 'node-399-lobby', 'node-399-middle', 'node-400-middle', 'node-400-rl', 'node-411-lobby', 'node-411-sl', 'node-419-lobby', 'node-419-middle', 'node-420-middle', 'node-420-rl', 'node-424-lobby', 'node-6476-ground', 'node-6476-lobby', 'node-901-lobby', 'node-901-rl', 'node-901-sl', 'node-918-lobby', 'node-918-rl', 'node-918-sl', 'node-919-rl', 'node-919-sl', 'node-926-lobby', 'node-927-rl', 'node-927-sl', 'node-949-lobby', 'node-sstat-382stair-lobby', 'node-sstat-382stair-rl', 'node-sstat-388stair-lobby', 'node-sstat-388stair-sl', 'node-sstat-389stair-lobby', 'node-sstat-389stair-rl', 'node-sstat-390stair-rl', 'node-sstat-390stair-sl', 'node-sstat-398stair-rl', 'node-sstat-398stair-sl', 'node-sstat-399stair-lobby', 'node-sstat-399stair-middle', 'node-sstat-400sl-middle', 'node-sstat-400sl-sl', 'node-sstat-400stair-middle', 'node-sstat-400stair-rl', 'node-sstat-411stair-lobby', 'node-sstat-411stair-sl', 'node-sstat-419stair-lobby', 'node-sstat-419stair-middle', 'node-sstat-420sl-middle', 'node-sstat-420sl-sl', 'node-sstat-420stair-middle', 'node-sstat-420stair-rl', 'node-sstat-918stair-lobby', 'node-sstat-918stair-sl', 'node-sstat-919stair-rl', 'node-sstat-919stair-sl', 'node-sstat-alewife-farepaid', 'node-sstat-alewife-fareunpaid', 'node-sstat-ashbrain-farepaid', 'node-sstat-ashbrain-fareunpaid', 'node-sstat-bldgescdown-ground', 'node-sstat-bldgescdown-lobby', 'node-sstat-bldgescup-ground', 'node-sstat-bldgescup-lobby', 'node-sstat-bldgstair-ground', 'node-sstat-bldgstair-lobby', 'node-sstat-cr-lobby', 'node-sstat-deweystair-lobby', 'node-sstat-finctrstair-lobby', 'node-sstat-north-farepaid', 'node-sstat-north-fareunpaid', 'node-sstat-outmainstair-lobby', 'node-sstat-reservestair-lobby', 'node-sstat-south-farepaid', 'node-sstat-south-fareunpaid']"""
NEC-2287-B,,South Station - Atlantic Ave @ Summer St,South Station - Commuter Rail Shuttle - Atlantic Ave @ Summer St,,Commuter Rail Shuttle,42.352293,-71.055529,,,,,0,place-sstat,1,Boston,Atlantic Avenue,Summer Street,3.0,[]
door-sstat-atlantic,,South Station - Atlantic Ave,South Station - Atlantic Ave,,,42.351551,-71.055716,,,,level_in_street,2,place-sstat,1,Boston,,,,[]
door-sstat-bus,,South Station - South Station Bus Terminal,South Station - South Station Bus Terminal,,,42.35069,-71.056121,,,,level_ground,2,place-sstat,1,Boston,,,,[]
door-sstat-dewey,,"South Station - Dewey Sq (Summer St, Atlantic Ave)","South Station - Dewey Sq (Summer St, Atlantic Ave)",,,42.352886,-71.055505,,,,level_in_street,2,place-sstat,1,Boston,,,,[]
door-sstat-finctr,,South Station - Financial Center,South Station - Financial Center,,,42.352544,-71.055824,,,,level_in_street,2,place-sstat,2,Boston,,,,[]
door-sstat-main,,"South Station - Main Entry, Dewey Square","South Station - Main Entry, Dewey Square",,,42.352302,-71.05523,,,,level_in_street,2,place-sstat,1,Boston,,,,[]
door-sstat-outmain,,"South Station - Summer St, Atlantic Ave, Commuter Rail","South Station - Summer St, Atlantic Ave, Commuter Rail",,,42.352363,-71.055071,,,,level_in_street,2,place-sstat,2,Boston,,,,[]
door-sstat-reserve,,"South Station - Atlantic Ave, Summer St","South Station - Atlantic Ave, Summer St",,,42.352677,-71.055013,,,,level_in_street,2,place-sstat,2,Boston,,,,[]
door-sstat-summer,,South Station - Summer St,South Station - Summer St,,,42.351787,-71.054402,,,,level_in_street,2,place-sstat,1,Boston,,,,[]
door-sstat-usps,,South Station - USPS Post Office,South Station - USPS Post Office,,,42.351108,-71.054729,,,,level_ground,2,place-sstat,1,Boston,,,,[]
door-state-cityhall,,State - City Hall,State - City Hall,,,42.359435,-71.057615,,,,level_in_street,2,place-state,2,Boston,,,,[]
door-state-congress,,State - Congress St (North),State - Congress St (North),,,42.359115,-71.056699,,,,level_in_street,2,place-state,1,Boston,,,,[]
door-state-exchange,,State - Congress St (Exchange Place),State - Congress St (Exchange Place),,,42.358413,-71.056499,,,,level_in_street,2,place-state,1,Boston,,,,[]
door-state-meeting,,"State - Washington St, Milk St","State - Washington St, Milk St",,,42.35715,-71.058394,,,,level_in_street,2,place-state,1,Boston,,,,[]
door-state-state,,"State - Old State House, State St","State - Old State House, State St",,,42.358735,-71.057298,,,,level_in_street,2,place-state,2,Boston,,,,[]
door-state-water,,"State - Devonshire St, Water St","State - Devonshire St, Water St",,,42.357487,-71.057412,,,,level_in_street,2,place-state,2,Boston,,,,[]
place-sthld,,Sutherland Road,,,,42.341614,-71.146202,,"Commonwealth Ave and Sutherland Rd, Boston, MA",https://www.mbta.com/stops/place-sthld,,1,,2,Boston,,,,"""['70116', '70117']"""
place-sull,,Sullivan Square,,,,42.383975,-71.076994,,"Maffa Way and Cambridge St, Charlestown, MA 02129",https://www.mbta.com/stops/place-sull,,1,,1,Boston,,,,"""['29002', '70030', '70031', 'node-307-lobby', 'node-307-platform', 'node-308-lobby', 'node-308-platform', 'node-840-lobby', 'node-840-platform', 'node-881-lobby', 'node-881-platform', 'node-lbusramp-lower', 'node-lbusramp-upper', 'node-lbusstairs-lower', 'node-lbusstairs-upper', 'node-sull-farepaid', 'node-sull-fareunpaid', 'node-sull-nbstairs-lobby', 'node-sull-nbstairs-platform', 'node-sull-sbstairs-lobby', 'node-sull-sbstairs-platform']"""
door-sull-main,,"Sullivan Square - Buses, Parking, Street","Sullivan Square - Buses, Parking, Street",,,42.384309,-71.076635,,,,level_ground,2,place-sull,1,Boston,,,,[]
place-symcl,,Symphony,,,,42.342687,-71.085056,,"Massachusetts Ave and Huntington Ave, Boston, MA",https://www.mbta.com/stops/place-symcl,,1,,2,Boston,,,,"""['70241', '70242', 'node-symcl-churstair-platform', 'node-symcl-eb-farepaid', 'node-symcl-eb-fareunpaid', 'node-symcl-eb-midbottom', 'node-symcl-eb-midtop', 'node-symcl-falmstair-platform', 'node-symcl-hunestair-platform', 'node-symcl-hunwstair-platform', 'node-symcl-sympstair-platform', 'node-symcl-wb-ebottom', 'node-symcl-wb-etop', 'node-symcl-wb-farepaid', 'node-symcl-wb-fareunpaid', 'node-symcl-wb-midbottom', 'node-symcl-wb-midtop', 'node-symcl-wb-wbottom', 'node-symcl-wb-wtop', 'node-symcl-weststair-platform']"""
door-symcl-ebchurch,,"Symphony - Massachusetts Ave, First Church of Christ","Symphony - Massachusetts Ave, First Church of Christ",,,42.342764,-71.084511,,,,level_in_street,2,place-symcl,2,Boston,,,,[]
door-symcl-ebsymphony,,"Symphony - Massachusetts Ave, Symphony Hall","Symphony - Massachusetts Ave, Symphony Hall",,,42.342457,-71.084862,,,,level_in_street,2,place-symcl,2,Boston,,,,[]
door-symcl-falmouth,,"Symphony - First Church, Falmouth St","Symphony - First Church, Falmouth St",,,42.343075,-71.085195,,,,level_in_street,2,place-symcl,2,Boston,,,,[]
door-symcl-hunte,,"Symphony - Massachusetts Ave, Huntington Ave (East)","Symphony - Massachusetts Ave, Huntington Ave (East)",,,42.342957,-71.085021,,,,level_in_street,2,place-symcl,2,Boston,,,,[]
door-symcl-huntw,,"Symphony - Massachusetts Ave, Huntington Ave (West)","Symphony - Massachusetts Ave, Huntington Ave (West)",,,42.342822,-71.085185,,,,level_in_street,2,place-symcl,2,Boston,,,,[]
door-symcl-westland,,"Symphony - Westland Ave, Symphony Hall","Symphony - Westland Ave, Symphony Hall",,,42.342941,-71.08536,,,,level_in_street,2,place-symcl,2,Boston,,,,[]
place-tumnl,,Tufts Medical Center,,,,42.349662,-71.063917,,"750 Washington St, Boston, MA",https://www.mbta.com/stops/place-tumnl,,1,,1,Boston,,,,"""['70016', '70017', 'node-145-lobby', 'node-146-lobby', 'node-146-platform', 'node-147-lobby', 'node-147-platform', 'node-148-lobby', 'node-148-platform', 'node-149-lobby', 'node-149-platform', 'node-857-lobby', 'node-858-lobby', 'node-858-platform', 'node-859-lobby', 'node-859-platform', 'node-tumnl-tre-farepaid', 'node-tumnl-tre-fareunpaid', 'node-tumnl-trenbstairs-lobby', 'node-tumnl-trenbstairs-platform', 'node-tumnl-tresbstairs-lobby', 'node-tumnl-tresbstairs-platform', 'node-tumnl-trestairs-lobby', 'node-tumnl-wash-farepaid', 'node-tumnl-wash-fareunpaid', 'node-tumnl-washnbstairs-lobby', 'node-tumnl-washnbstairs-platform', 'node-tumnl-washsbstairs-lobby', 'node-tumnl-washsbstairs-platform', 'node-tumnl-washstairs-lobby']"""
door-tumnl-tremont,,"Tufts Medical Center - Tremont St, YMCA Wang","Tufts Medical Center - Tremont St, YMCA Wang",,,42.34869,-71.06531,,,,level_in_street,2,place-tumnl,2,Boston,,,,[]
door-tumnl-washington,,"Tufts Medical Center - Washington St, Tufts Medical Center","Tufts Medical Center - Washington St, Tufts Medical Center",,,42.349662,-71.063917,,,,level_in_street,2,place-tumnl,1,Boston,,,,[]
place-unsqu,,Union Square,,,,42.377359,-71.094761,,"50 Prospect St, Somerville, MA 02143",https://www.mbta.com/stops/place-unsqu,,1,,1,Somerville,,,,"""['70503', '70504', 'Union Square-01', 'Union Square-02', 'node-771-bottom', 'node-771-top', 'node-unsqu-rollupgate', 'node-unsqu-stairs-bottom', 'node-unsqu-stairs-top']"""
door-unsqu-allen,,Union Square - Allen St,Union Square - Allen St,,,42.376841,-71.093356,,,,level_in_street,2,place-unsqu,1,Somerville,,,,[]
door-unsqu-elevator,,"Union Square - Prospect St, Webster Ave","Union Square - Prospect St, Webster Ave",,,42.377612,-71.095045,,,,level_1_in_street,2,place-unsqu,1,Somerville,,,,[]
door-unsqu-somerville,,Union Square - Prospect St,Union Square - Prospect St,,,42.377647,-71.094856,,,,level_in_street,2,place-unsqu,1,Somerville,,,,[]
place-valrd,,Valley Road,,,,42.268347,-71.081343,,"291 Valley Rd, Milton, MA 02186",https://www.mbta.com/stops/place-valrd,,1,,2,Milton,,,,"""['70271', '70272', 'node-valrd-stairs-platform', 'node-valrd-stairs-street']"""
door-valrd-eliot,,Valley Road - Eliot St,Valley Road - Eliot St,,,42.267932,-71.081125,,,,level_1_in_street,2,place-valrd,2,Milton,,,,[]
place-waban,,Waban,,,,42.325845,-71.230609,,"Beacon St and Waban Sq, Newton, MA 02468",https://www.mbta.com/stops/place-waban,,1,,2,Newton,,,,"""['70164', '70165', 'node-waban-beacon-ramp', 'node-waban-beacon-stairs', 'node-waban-parkstairs-platform']"""
door-waban-beacon,,Waban - Beacon St (Stairs),Waban - Beacon St (Stairs),,,42.326298,-71.230923,,,,level_beacon_st,2,place-waban,2,Newton,,,,[]
door-waban-parkr,,Waban - Parking (Ramp),Waban - Parking (Ramp),,,42.325748,-71.230288,,,,level_ground,2,place-waban,1,Newton,,,,[]
door-waban-parks,,Waban - Parking (Stairs),Waban - Parking (Stairs),,,42.326046,-71.230725,,,,level_ground,2,place-waban,2,Newton,,,,[]
door-waban-wyman,,Waban - Wyman St,Waban - Wyman St,,,42.326355,-71.23056,,,,level_in_street,2,place-waban,1,Newton,,,,[]
place-wascm,,Washington Street,,,,42.343864,-71.142853,,"Commonwealth Ave and Washington St, Boston, MA",https://www.mbta.com/stops/place-wascm,,1,,1,Boston,,,,"""['70120', '70121']"""
place-welln,,Wellington,,,,42.40237,-71.077082,,"Revere Beach Pkwy and Rivers Edge Dr, Medford, MA 02155",https://www.mbta.com/stops/place-welln,,1,,1,Medford,,,,"""['70032', '70033', 'node-309-lobby', 'node-309-platform', 'node-310-lobby', 'node-310-platform', 'node-864-lobby', 'node-864-platform', 'node-865-lobby', 'node-865-platform', 'node-welln-busramp-lobby', 'node-welln-busstair-lobby', 'node-welln-farepaid', 'node-welln-fareunpaid', 'node-welln-fhstair-lobby', 'node-welln-fhstair-platform', 'node-welln-ogstair-lobby', 'node-welln-ogstair-platform', 'node-welln-skyelev-bridge', 'node-welln-skyentry', 'node-welln-skystairs-bridge']"""
5271,5271.0,Wellington Station Busway,,,,42.402581,-71.076089,,,https://www.mbta.com/stops/place-welln,,0,place-welln,1,Medford,Cooper Street,,,[]
door-welln-busway,,"Wellington - Buses, Parking Lot","Wellington - Buses, Parking Lot",,,42.402446,-71.076576,,,,level_ground,2,place-welln,1,Medford,,,,[]
door-welln-garage,,"Wellington - Station Landing, Garage","Wellington - Station Landing, Garage",,,42.402461,-71.080092,,,,level_ground,2,place-welln,1,Medford,,,,[]
place-wimnl,,Wood Island,,,,42.37964,-71.022865,,"450 Bennington St, East Boston, MA",https://www.mbta.com/stops/place-wimnl,,1,,1,Boston,,,,"""['70049', '70050', 'node-380-bridge', 'node-380-platform', 'node-889-paidbridge', 'node-889-paidplatform', 'node-889-unpaidbridge', 'node-889-unpaidstreet', 'node-890-paidbridge', 'node-890-paidplatform', 'node-890-unpaidbridge', 'node-890-unpaidstreet', 'node-wimnl-benn-farepaid', 'node-wimnl-benn-fareunpaid', 'node-wimnl-ibpaidstairs-bridge', 'node-wimnl-ibpaidstairs-platform', 'node-wimnl-ibunpaidstairs-bridge', 'node-wimnl-ibunpaidstairs-street', 'node-wimnl-love-farepaid', 'node-wimnl-love-fareunpaid', 'node-wimnl-love-stairs', 'node-wimnl-obpaidstairs-bridge', 'node-wimnl-obpaidstairs-platform', 'node-wimnl-obunpaidstairs-bridge', 'node-wimnl-obunpaidstairs-street']"""
door-wimnl-benning,,Wood Island - Bennington St,Wood Island - Bennington St,,,42.379854,-71.023052,,,,level_ground,2,place-wimnl,1,Boston,,,,[]
door-wimnl-lovell,,Wood Island - Lovell St,Wood Island - Lovell St,,,42.379446,-71.023083,,,,level_in_street,2,place-wimnl,1,Boston,,,,[]
place-wlsta,,Wollaston,,,,42.266514,-71.020337,,"90 Woodbine St, Quincy, MA 02171",https://www.mbta.com/stops/place-wlsta,,1,,1,Quincy,,,,"""['70099', '70100', 'node-448-bridge', 'node-448-lobby', 'node-449-bridge', 'node-449-platform', 'node-733-bridge', 'node-733-lobby', 'node-734-lobby', 'node-734-platform', 'node-735-bridge', 'node-735-platform', 'node-wlsta-lobbyramp-lower', 'node-wlsta-lobbyramp-upper', 'node-wlsta-lobbysteps-lower', 'node-wlsta-lobbysteps-upper', 'node-wlsta-mainnewp-farepaid', 'node-wlsta-mainnewp-fareunpaid', 'node-wlsta-newpramp-lobby', 'node-wlsta-newpramp-middle', 'node-wlsta-newprampup-middle', 'node-wlsta-newpstairup-middle', 'node-wlsta-park-farepaid', 'node-wlsta-park-fareunpaid', 'node-wlsta-stair1-bridge', 'node-wlsta-stair1-lobby', 'node-wlsta-stair4-lobby', 'node-wlsta-stair4-platform', 'node-wlsta-stair5-bridge', 'node-wlsta-stair5-platform', 'node-wlsta-stair6-lobby', 'node-wlsta-stair6-platform', 'node-wlsta-stair6gate-farepaid', 'node-wlsta-stair6gate-fareunpaid', 'node-wlsta-stair7-lobby', 'node-wlsta-stair7-street']"""
door-wlsta-beale,,"Wollaston - Beale Street, drop-off/pick-up","Wollaston - Beale Street, drop-off/pick-up",,,42.266639,-71.019948,,,,level_ground,2,place-wlsta,1,Quincy,,,,[]
door-wlsta-newpnorth,,Wollaston - Newport Ave (Stairs),Wollaston - Newport Ave (Stairs),,,42.266554,-71.020523,,,,level_ground,2,place-wlsta,2,Quincy,,,,[]
door-wlsta-newpsouth,,Wollaston - Newport Ave (Ramp),Wollaston - Newport Ave (Ramp),,,42.266222,-71.020167,,,,level_ground,2,place-wlsta,1,Quincy,,,,[]
door-wlsta-parking,,"Wollaston - Parking, drop-off/pick-up","Wollaston - Parking, drop-off/pick-up",,,42.266783,-71.020104,,,,level_ground,2,place-wlsta,1,Quincy,,,,[]
place-wondl,,Wonderland,,,,42.41342,-70.991648,,"1300 North Shore Rd, Revere, MA 02151",https://www.mbta.com/stops/place-wondl,,1,,1,Revere,,,,"""['15795', '70059', '70060', 'node-701-bridge', 'node-701-lobby', 'node-701-plaza', 'node-702-bridge', 'node-702-lobby', 'node-702-plaza', 'node-703-bridge', 'node-703-lobby', 'node-703-plaza', 'node-708-lobby', 'node-709-plaza', 'node-709-street', 'node-710-platform', 'node-710-plaza', 'node-711-plaza', 'node-wondl-busramp-busway', 'node-wondl-busstairs-busway', 'node-wondl-buswaydoor', 'node-wondl-eplazacenter', 'node-wondl-farepaid', 'node-wondl-fareunpaid', 'node-wondl-footbridgeib', 'node-wondl-footbridgeob', 'node-wondl-ibfootbridgestairs-lobby', 'node-wondl-ibplazaentrance', 'node-wondl-ibplazastairs-bridge', 'node-wondl-ibplazastairs-lobby', 'node-wondl-ibplazastairs-plaza', 'node-wondl-lobbycenter', 'node-wondl-nshoreplazastairs-plaza', 'node-wondl-nshoreplazastairs-street', 'node-wondl-nshorestairs-bottom', 'node-wondl-obplatstairs-platform', 'node-wondl-obplazaentrance', 'node-wondl-obplazastairs-street', 'node-wondl-oceanaveingress', 'node-wondl-oceanramp-bottom', 'node-wondl-oceanstairs-plaza', 'node-wondl-plazacenter', 'node-wondl-revereramp-top']"""
door-wondl-nshore,,Wonderland - 1300 North Shore Rd,Wonderland - 1300 North Shore Rd,,,42.41365,-70.991904,,,,level_in_street,2,place-wondl,1,Revere,,,,[]
door-wondl-ocean,,Wonderland - Ocean Ave,Wonderland - Ocean Ave,,,42.413295,-70.99155,,,,level_ground,2,place-wondl,1,Revere,,,,[]
door-wondl-oceann,,Wonderland - Ocean Ave North,Wonderland - Ocean Ave North,,,42.413372,-70.990494,,,,level_in_street,2,place-wondl,2,Revere,,,,[]
door-wondl-oceannele,,Wonderland - Ocean Ave North Elevator,Wonderland - Ocean Ave North Elevator,,,42.413537,-70.990558,,,,level_in_street,2,place-wondl,1,Revere,,,,[]
door-wondl-revere,,Wonderland - Revere Beach,Wonderland - Revere Beach,,,42.41329,-70.98977,,,,level_1_in_street,2,place-wondl,1,Revere,,,,[]
door-woodl-east,,Woodland - East,Woodland - East,,,42.332729,-71.242908,,,,level_in_street,2,place-woodl,1,Newton,,,,[]
door-woodl-main,,Woodland - Main,Woodland - Main,,,42.333136,-71.24372,,,,level_in_street,2,place-woodl,1,Newton,,,,[]
place-wrnst,,Warren Street,,,,42.348343,-71.140457,,"Commonwealth Ave and Warren St, Boston, MA",https://www.mbta.com/stops/place-wrnst,,1,,2,Boston,,,,"""['70124', '70125']"""
place-wtcst,,World Trade Center,,,,42.34863,-71.04246,,"Congress St and World Trade Center Ave, Boston, MA",https://www.mbta.com/stops/place-wtcst,,1,,1,Boston,,,,"""['74613', '74615', 'node-401-landing', 'node-401-top', 'node-402-landing', 'node-402-lobby', 'node-403-lobby', 'node-403-platform', 'node-404-lobby', 'node-404-platform', 'node-934-lobby', 'node-935-lobby', 'node-935-platform', 'node-936-lobby', 'node-936-platform', 'node-wtcst-farepaid', 'node-wtcst-fareunpaid', 'node-wtcst-ibstairs-lobby', 'node-wtcst-ibstairs-platform', 'node-wtcst-obstairs-lobby', 'node-wtcst-obstairs-platform', 'node-wtcst-paidlobbycenter', 'node-wtcst-wtcbstairs-landing', 'node-wtcst-wtcbstairs-lobby', 'node-wtcst-wtctstairs-landing', 'node-wtcst-wtctstairs-top']"""
door-wtcst-congress,,World Trade Center - Congress St,World Trade Center - Congress St,,,42.348702,-71.042368,,,,level_congress_st,2,place-wtcst,1,Boston,,,,[]
door-wtcst-wtc,,World Trade Center - World Trade Center Ave,World Trade Center - World Trade Center Ave,,,42.348484,-71.042509,,,,level_wtc_ave,2,place-wtcst,1,Boston,,,,[]
